[
  {
    "type": "hospital",
    "name": "Hughes Medical Centre",
    "address": "Lower South Hill Near, Cuisinart Hotel, 2640, Anguilla",
    "latlng": [
      18.187,
      -63.115
    ],
    "contact": "(264) 497-3053",
    "website": "hughesmedical.com",
    "hours": "08:00 - 17:00"
  },
  {
    "type": "hospital",
    "name": "Princess Alexandra Hospital",
    "address": "Anguilla",
    "latlng": [
      18.22,
      -63.05
    ],
    "contact": "(264) 497-2551",
    "website": "Not Listed",
    "hours": "00:00 - 00:00"
  },
  {
    "type": "hospital",
    "name": "Atlantic Star Center of Medical Excellence",
    "address": "South Hill, Anguilla",
    "latlng": [
      18.194,
      -63.09
    ],
    "contact": "(264) 729-9389",
    "website": "atlanticstarmedical.com",
    "hours": "08:30 - 17:00"
  },
  {
    "type": "hospital",
    "name": "Mount St. John's Medical Centre",
    "address": "Saint John´s",
    "latlng": [
      17.116,
      -61.841
    ],
    "contact": "(268) 484-2700",
    "website": "msjmc.org",
    "hours": "00:00 - 00:00"
  },
  {
    "type": "hospital",
    "name": "Adelin Medical Centre",
    "address": "Fort Road, Saint John´s, Antigua and Barbuda",
    "latlng": [
      17.136,
      -61.849
    ],
    "contact": "268 462 0866",
    "website": "Not Listed",
    "hours": "00:00 - 00:00"
  },
  {
    "type": "hospital",
    "name": "Hanna Thomas Hospital",
    "address": "Codrington, Antigua and Barbuda",
    "latlng": [
      17.629,
      -61.831
    ],
    "contact": "+1 268-460-0076",
    "website": "Not Listed",
    "hours": "Not Listed"
  },
  {
    "type": "hospital",
    "name": "Belmont Health Care Center - Belmont Clinic",
    "address": "35WJ+9R8, St John's, Antigua and Barbuda",
    "latlng": [
      17.096,
      -61.82
    ],
    "contact": "(268) 562-1343",
    "website": "belmontclinic.com",
    "hours": "00:00 - 00:00"
  },
  {
    "type": "hospital",
    "name": "Jubiliee Regional Medical Center Inc",
    "address": "46C2+V3P, Osbourn, Antigua and Barbuda",
    "latlng": [
      17.122,
      -61.802
    ],
    "contact": "Not Listed",
    "website": "Not Listed",
    "hours": "Not Listed"
  },
  {
    "type": "hospital",
    "name": "Ultra Medical Care",
    "address": "St John's St, St John's, Antigua and Barbuda",
    "latlng": [
      17.125,
      -61.848
    ],
    "contact": "(268) 462-6149",
    "website": "Not Listed",
    "hours": "09:00 - 17:00"
  },
  {
    "type": "hospital",
    "name": "Gambles Medical Centre",
    "address": "45H7+J97, Friars Hill Road, St John's, Antigua and Barbuda",
    "latlng": [
      17.129,
      -61.839
    ],
    "contact": "(268) 562-7111",
    "website": "Not Listed",
    "hours": "08:00 - 16:00"
  },
  {
    "type": "hospital",
    "name": "Barbuda Hospital",
    "address": "J5HC+P94, Codrington, Antigua and Barbuda",
    "latlng": [
      17.629,
      -61.831
    ],
    "contact": "Not Listed",
    "website": "Not Listed",
    "hours": "Not Listed"
  },
  {
    "type": "hospital",
    "name": "Clearview psychiatric hospital",
    "address": "45CC+WX2, Piggotts, Antigua and Barbuda",
    "latlng": [
      17.122,
      -61.83
    ],
    "contact": "(268) 462-0417",
    "website": "Not Listed",
    "hours": "00:00 - 00:00"
  },
  {
    "type": "hospital",
    "name": "Woods Urgent Care",
    "address": "Woods Mall, St John's, Antigua and Barbuda",
    "latlng": [
      17.13,
      -61.837
    ],
    "contact": "(268) 562-1160",
    "website": "Not Listed",
    "hours": "08:00 - 16:00"
  },
  {
    "type": "hospital",
    "name": "The Cancer Center Eastern Caribbean",
    "address": "The Medical Pavilion, Queen Elizabeth's, 4596+7P9, Highway, Antigua, Antigua and Barbuda",
    "latlng": [
      17.118,
      -61.84
    ],
    "contact": "(268) 460-6000",
    "website": "Not Listed",
    "hours": "08:00 - 16:00"
  },
  {
    "type": "hospital",
    "name": "Antigua Medical Centre",
    "address": "4548+MFV, American Road, St John's, Antigua and Barbuda",
    "latlng": [
      17.106,
      -61.836
    ],
    "contact": "(268) 460-8646",
    "website": "Not Listed",
    "hours": "Not Listed"
  },
  {
    "type": "hospital",
    "name": "Cedar Grove Health Centre",
    "address": "556M+H33, Unnamed Road, Cedar Grove, Antigua and Barbuda",
    "latlng": [
      17.161,
      -61.819
    ],
    "contact": "(268) 462-1011",
    "website": "Not Listed",
    "hours": "Not Listed"
  },
  {
    "type": "hospital",
    "name": "NSA Medical Surgical Rehab Centre",
    "address": "gunthorps, Potters Village, Antigua and Barbuda",
    "latlng": [
      17.11,
      -61.81
    ],
    "contact": "(268) 462-0631",
    "website": "Not Listed",
    "hours": "08:30 - 17:00"
  },
  {
    "type": "hospital",
    "name": "Antigua Medical Centre - Jolly Harbour",
    "address": "Unit 7, D block, Jolly Harbour Commercial Centre, Saint Marys, Antigua and Barbuda",
    "latlng": [
      17.065,
      -61.885
    ],
    "contact": "(268) 734-4626",
    "website": "jollymedicalclinic.com",
    "hours": "08:00 - 17:00"
  },
  {
    "type": "hospital",
    "name": "Infectious Disease Centre",
    "address": "4589+G86, St John's, Antigua and Barbuda",
    "latlng": [
      17.116,
      -61.834
    ],
    "contact": "Not Listed",
    "website": "Not Listed",
    "hours": "00:00 - 00:00"
  },
  {
    "type": "hospital",
    "name": "Winter's Medical Centre",
    "address": "45M3+JM9, Fort Rd, St John's, Antigua and Barbuda",
    "latlng": [
      17.134,
      -61.848
    ],
    "contact": "(268) 562-1977",
    "website": "Not Listed",
    "hours": "09:00 - 17:00"
  },
  {
    "type": "hospital",
    "name": "Trinity Medical Services",
    "address": "Caines Commercial Center Deanery Lane, St John's, Antigua and Barbuda",
    "latlng": [
      17.125,
      -61.843
    ],
    "contact": "(268) 562-2221",
    "website": "Not Listed",
    "hours": "09:00 - 17:00"
  },
  {
    "type": "hospital",
    "name": "Liberta Health Centre",
    "address": "26P6+J6C, Liberta, Antigua and Barbuda",
    "latlng": [
      17.036,
      -61.792
    ],
    "contact": "(268) 460-3175",
    "website": "Not Listed",
    "hours": "Not Listed"
  },
  {
    "type": "hospital",
    "name": "Mavis Cabral Medical Center",
    "address": "3674+P39, All Saints, Antigua and Barbuda",
    "latlng": [
      17.064,
      -61.797
    ],
    "contact": "(268) 784-8208",
    "website": "Not Listed",
    "hours": "06:00 - 17:00"
  },
  {
    "type": "hospital",
    "name": "Horacio Oduber Hospital",
    "address": "Dr. Horacio E. Oduber Boulevard #1, Oranjestad, Aruba",
    "latlng": [
      12.543,
      -70.061
    ],
    "contact": "527 4000",
    "website": "arubahospital.com",
    "hours": "Not Listed"
  },
  {
    "type": "hospital",
    "name": "Noord Medical Center (GMC General Medical Care N V)",
    "address": "Caya Frans Figaroa 63, Noord, Aruba",
    "latlng": [
      12.567,
      -70.034
    ],
    "contact": "586 0512",
    "website": "Not Listed",
    "hours": "08:00 - 12:0013:00 - 16:00"
  },
  {
    "type": "hospital",
    "name": "Urgent Care Aruba (UCA) Noord Medical Center",
    "address": "Noord 63, Noord Medical Center, Oranjestad, Aruba",
    "latlng": [
      12.567,
      -70.034
    ],
    "contact": "586 0448",
    "website": "urgentcare.aw",
    "hours": "10:00 - 14:00"
  },
  {
    "type": "hospital",
    "name": "KNO Clinic",
    "address": "Caya Dr. J.E.M. Arends 18B, Oranjestad, Aruba",
    "latlng": [
      12.542,
      -70.059
    ],
    "contact": "Not Listed",
    "website": "Not Listed",
    "hours": "Not Listed"
  },
  {
    "type": "hospital",
    "name": "Hygienische Dienst",
    "address": "GXCC+725, Dr. Oduberstraat, Oranjestad, Aruba",
    "latlng": [
      12.52,
      -70.032
    ],
    "contact": "Not Listed",
    "website": "Not Listed",
    "hours": "Not Listed"
  },
  {
    "type": "hospital",
    "name": "Medcare Clinic Aruba",
    "address": "L.G. Smith Boulevard 160, Oranjestad, Aruba",
    "latlng": [
      12.532,
      -70.055
    ],
    "contact": "699 9441",
    "website": "aeson-health.com",
    "hours": "00:00 - 00:00"
  },
  {
    "type": "hospital",
    "name": "Centro Medico Dr. Rudy Engelbrecht (IMSAN)",
    "address": "10 Pastoor Hendrikstraat, San Nicolas, Aruba",
    "latlng": [
      12.439,
      -69.918
    ],
    "contact": "+297 5841782",
    "website": "www.imsan.aw",
    "hours": "00:00 - 00:00"
  },
  {
    "type": "hospital",
    "name": "Cas d Cuido Los Años Dorado",
    "address": "Sabana Blanco 1, Oranjestad, Aruba",
    "latlng": [
      12.508,
      -70.017
    ],
    "contact": "564 8625",
    "website": "Not Listed",
    "hours": "00:00 - 00:00"
  },
  {
    "type": "hospital",
    "name": "Maatschap Heart Clinic Aruba",
    "address": "Caya Punta Brabo 5, Aruba",
    "latlng": [
      12.54,
      -70.061
    ],
    "contact": "588 1100",
    "website": "Not Listed",
    "hours": "08:00 - 15:00"
  },
  {
    "type": "hospital",
    "name": "Stichting Bloedbank Aruba",
    "address": "GWVR+3RQ, Caya Punta Brabo, Noord, Aruba",
    "latlng": [
      12.542,
      -70.06
    ],
    "contact": "587 0002",
    "website": "bloedbankaruba.aw",
    "hours": "Not Listed"
  },
  {
    "type": "hospital",
    "name": "Centro Medico Familiar N.V.",
    "address": "Avicennastraat 16, Oranjestad, Aruba",
    "latlng": [
      12.52,
      -70.03
    ],
    "contact": "583 9119",
    "website": "cemefaaruba.com",
    "hours": "07:00 - 19:00"
  },
  {
    "type": "hospital",
    "name": "Respaldo FSMA",
    "address": "Dr. Horacio E. Oduber Hospital Boulevard #1, Oranjestad, Aruba",
    "latlng": [
      12.543,
      -70.061
    ],
    "contact": "Not Listed",
    "website": "Not Listed",
    "hours": "Not Listed"
  },
  {
    "type": "hospital",
    "name": "Punta Brabo Diagnostics",
    "address": "Caya Punta Brabo 11A, Eagle, Aruba",
    "latlng": [
      12.54,
      -70.06
    ],
    "contact": "280 0448",
    "website": "facebook.com/puntabrabo",
    "hours": "08:00 - 20:00"
  },
  {
    "type": "hospital",
    "name": "Pieterse Medical Center",
    "address": "67-B Unit 1,, Oranjestad, Aruba",
    "latlng": [
      12.538,
      -70.033
    ],
    "contact": "583 3330",
    "website": "Not Listed",
    "hours": "08:00 - 16:00"
  },
  {
    "type": "hospital",
    "name": "Zuidstraat Huisartsen",
    "address": "67-B Unit 1,, Oranjestad, Aruba",
    "latlng": [
      12.538,
      -70.033
    ],
    "contact": "583 3330",
    "website": "Not Listed",
    "hours": "08:00 - 16:00"
  },
  {
    "type": "hospital",
    "name": "Aaron Quiropractico",
    "address": "Primavera 6-J, Oranjestad, Aruba",
    "latlng": [
      12.511,
      -70.011
    ],
    "contact": "Not Listed",
    "website": "Not Listed",
    "hours": "Not Listed"
  },
  {
    "type": "hospital",
    "name": "Doctor Na Warda Aruba",
    "address": "GWVR+4MW, Caya Punta Brabo, Oranjestad, Aruba",
    "latlng": [
      12.543,
      -70.06
    ],
    "contact": "527 4580",
    "website": "Not Listed",
    "hours": "08:00 - 12:0017:30 - 22:00"
  },
  {
    "type": "hospital",
    "name": "Physical Therapy & Rehab Clinic",
    "address": "Caya Punta Brabo 7, Oranjestad, Aruba",
    "latlng": [
      12.54,
      -70.061
    ],
    "contact": "Not Listed",
    "website": "Not Listed",
    "hours": "Not Listed"
  },
  {
    "type": "hospital",
    "name": "Princess Margaret Hospital",
    "address": "610 University Ave, Toronto, Ontario, Canada",
    "latlng": [
      43.658,
      -79.393
    ],
    "contact": "+1-416-946-2000",
    "website": "www.theprincessmargaret.ca",
    "hours": "00:00 - 00:00"
  },
  {
    "type": "hospital",
    "name": "Doctors Hospital West",
    "address": "461 W Huron St, Pontiac, United States",
    "latlng": [
      42.634,
      -83.311
    ],
    "contact": "248-857-7200",
    "website": "www.pontiacgeneral.com",
    "hours": "00:00 - 00:00"
  },
  {
    "type": "hospital",
    "name": "Centreville Medical Centre Ltd",
    "address": "Sixth Ter, Nassau, Bahamas",
    "latlng": [
      25.066,
      -77.338
    ],
    "contact": "+1 (242) 123 4567",
    "website": "http://centrevillemedicalcentre.com/",
    "hours": "Not Listed"
  },
  {
    "type": "hospital",
    "name": "Lyford Cay Hospital",
    "address": "Nassau",
    "latlng": [
      25.032,
      -77.515
    ],
    "contact": "(242) 362-4400",
    "website": "Not Listed",
    "hours": "08:00 - 17:00"
  },
  {
    "type": "hospital",
    "name": "Doctor's Hospital",
    "address": "1 Collins Avenue, Nassau, Bahamas",
    "latlng": [
      25.075,
      -77.335
    ],
    "contact": "(242) 302-4600",
    "website": "doctorshosp.com",
    "hours": "00:00 - 00:00"
  },
  {
    "type": "hospital",
    "name": "Grosvenor Medical Center",
    "address": "3MFG+C6J, Shirley St, Nassau, The Bahamas",
    "latlng": [
      25.073,
      -77.327
    ],
    "contact": "Not Listed",
    "website": "Not Listed",
    "hours": "Not Listed"
  },
  {
    "type": "hospital",
    "name": "Seagrapes Medical Center",
    "address": "2PP9+FMC, Nassau, The Bahamas",
    "latlng": [
      25.036,
      -77.283
    ],
    "contact": "(242) 364-6487",
    "website": "Not Listed",
    "hours": "12:00 - 20:00"
  },
  {
    "type": "hospital",
    "name": "Phoenix Medical Centre",
    "address": "66 Dowdeswell St, Nassau, The Bahamas",
    "latlng": [
      25.075,
      -77.332
    ],
    "contact": "(242) 325-1560",
    "website": "Not Listed",
    "hours": "09:00 - 17:00"
  },
  {
    "type": "hospital",
    "name": "The Medical Pavilion Bahamas",
    "address": "72, 74 Collins Ave, Nassau, The Bahamas",
    "latlng": [
      25.066,
      -77.338
    ],
    "contact": "(242) 356-6666",
    "website": "tmp-bahamas.com",
    "hours": "09:00 - 17:00"
  },
  {
    "type": "hospital",
    "name": "Marsh Harbour Healthcare Centre (PCH)",
    "address": "GWMH+GWG, Marsh Harbour, The Bahamas",
    "latlng": [
      26.534,
      -77.072
    ],
    "contact": "(242) 367-2510",
    "website": "Not Listed",
    "hours": "Not Listed"
  },
  {
    "type": "hospital",
    "name": "Sunrise Medical Center Hospital Complex & The Urgent Care Center",
    "address": "G887+J52, E Sunrise Hwy, Freeport, The Bahamas",
    "latlng": [
      26.516,
      -78.689
    ],
    "contact": "(242) 373-3333",
    "website": "Not Listed",
    "hours": "08:00 - 17:00"
  },
  {
    "type": "hospital",
    "name": "Oaktree Medical Center",
    "address": "2 Fifth Terrace & Mount Royal Ave Nassau N.P, Nassau, The Bahamas",
    "latlng": [
      25.069,
      -77.334
    ],
    "contact": "(242) 322-1145",
    "website": "oaktreemedicalcenter.com",
    "hours": "08:00 - 00:00"
  },
  {
    "type": "hospital",
    "name": "Rand Memorial Hospital",
    "address": "East Atlantic Dr, Freeport, Bahamas",
    "latlng": [
      26.533,
      -78.695
    ],
    "contact": "12423526735",
    "website": "bahamaslocal.com/showlisting/8046/Rand_Memorial_Hospital.html",
    "hours": "00:00 - 00:00"
  },
  {
    "type": "hospital",
    "name": "kennedy medical center",
    "address": "East Atlantic Dr, Freeport, Bahamas",
    "latlng": [
      26.533,
      -78.695
    ],
    "contact": "12423526735",
    "website": "bahamaslocal.com/showlisting/8046/Rand_Memorial_Hospital.html",
    "hours": "00:00 - 00:00"
  },
  {
    "type": "hospital",
    "name": "Adolescent Health Center",
    "address": "3MF4+F4C, School Ln, Nassau, The Bahamas",
    "latlng": [
      25.073,
      -77.347
    ],
    "contact": "(242) 328-3248",
    "website": "Not Listed",
    "hours": "Not Listed"
  },
  {
    "type": "hospital",
    "name": "The Medical Pavilion",
    "address": "72, 74 Collins Ave, Nassau, The Bahamas",
    "latlng": [
      25.066,
      -77.338
    ],
    "contact": "(242) 356-6666",
    "website": "tmp-bahamas.com",
    "hours": "09:00 - 17:00"
  },
  {
    "type": "hospital",
    "name": "Doctor's Hospital Luden Conference Room",
    "address": "3MG8+9P3, Dowdeswell St, Nassau, The Bahamas",
    "latlng": [
      25.076,
      -77.335
    ],
    "contact": "(242) 302-4700",
    "website": "Not Listed",
    "hours": "Not Listed"
  },
  {
    "type": "hospital",
    "name": "The Medical And Dental Care Centre",
    "address": "3J4P+Q69, Thompson Boulevard, Nassau, The Bahamas",
    "latlng": [
      25.057,
      -77.366
    ],
    "contact": "Not Listed",
    "website": "Not Listed",
    "hours": "Not Listed"
  },
  {
    "type": "hospital",
    "name": "Lucayan Medical East",
    "address": "G8FQ+98G, E Sunrise Hwy, Freeport, The Bahamas",
    "latlng": [
      26.523,
      -78.664
    ],
    "contact": "(242) 373-7400",
    "website": "Not Listed",
    "hours": "Not Listed"
  },
  {
    "type": "hospital",
    "name": "Proposed National public Hospital",
    "address": "3J2W+V52, Nassau, The Bahamas",
    "latlng": [
      25.052,
      -77.357
    ],
    "contact": "Not Listed",
    "website": "Not Listed",
    "hours": "Not Listed"
  },
  {
    "type": "hospital",
    "name": "Queen Elizabeth Hospital Barbados",
    "address": "Martindales Rd, Bridgetown, Barbados",
    "latlng": [
      13.095,
      -59.609
    ],
    "contact": "(246) 436-6450",
    "website": "qehconnect.com",
    "hours": "00:00 - 00:00"
  },
  {
    "type": "hospital",
    "name": "Bayview Hospital",
    "address": "Martindales Rd, Bridgetown, Barbados",
    "latlng": [
      13.095,
      -59.609
    ],
    "contact": "(246) 436-6450",
    "website": "qehconnect.com",
    "hours": "00:00 - 00:00"
  },
  {
    "type": "hospital",
    "name": "Sandy Crest Medical Centre",
    "address": "Bayville, St. Michael",
    "latlng": [
      13.088,
      -59.61
    ],
    "contact": "(246) 436-5446",
    "website": "bayviewhospital.com.bb",
    "hours": "00:00 - 00:00"
  },
  {
    "type": "hospital",
    "name": "Radnor Hospital",
    "address": "39XX+PPJ, Bridgetown, Barbados",
    "latlng": [
      13.099,
      -59.603
    ],
    "contact": "Not Listed",
    "website": "Not Listed",
    "hours": "00:00 - 00:00"
  },
  {
    "type": "hospital",
    "name": "Johnson Memorial Hospital",
    "address": "One Welches Welches St Thomas, BB22025, Barbados",
    "latlng": [
      13.151,
      -59.611
    ],
    "contact": "(848) 997-1044",
    "website": "johnsonmemorialbarbados.com",
    "hours": "00:00 - 00:00"
  },
  {
    "type": "hospital",
    "name": "MD Alliance Surgery & Birthing Centre",
    "address": "35 Pine Rd, Bridgetown, Barbados",
    "latlng": [
      13.099,
      -59.603
    ],
    "contact": "(246) 622-2424",
    "website": "mdahospital.com",
    "hours": "00:00 - 00:00"
  },
  {
    "type": "hospital",
    "name": "Mayfield medical Centre",
    "address": "39WX+34Q, 4th Ave, Bridgetown, Barbados",
    "latlng": [
      13.095,
      -59.604
    ],
    "contact": "Not Listed",
    "website": "Not Listed",
    "hours": "09:00 - 15:00"
  },
  {
    "type": "hospital",
    "name": "Wellness Clinic",
    "address": "39MR+PHR, Bridgetown, Barbados",
    "latlng": [
      13.084,
      -59.611
    ],
    "contact": "537-1313",
    "website": "Not Listed",
    "hours": "00:00 - 00:00"
  },
  {
    "type": "hospital",
    "name": "The Sparman Clinic",
    "address": "4 6th Ave, Bridgetown, Barbados",
    "latlng": [
      13.097,
      -59.604
    ],
    "contact": "(246) 624-3278",
    "website": "Not Listed",
    "hours": "00:00 - 00:00"
  },
  {
    "type": "hospital",
    "name": "Maurice Byer Clinic",
    "address": "Sand Street, Speightstown, St. Peter, Barbados",
    "latlng": [
      13.253,
      -59.641
    ],
    "contact": "(246) 536-3200",
    "website": "Not Listed",
    "hours": "08:30 - 19:00"
  },
  {
    "type": "hospital",
    "name": "Maxwell Medical Clinic",
    "address": "Hwy 7, Top Rock, Christ Church, Barbados",
    "latlng": [
      13.07,
      -59.568
    ],
    "contact": "(246) 271-6320",
    "website": "maxwellmed.as.me",
    "hours": "09:00 - 13:00"
  },
  {
    "type": "hospital",
    "name": "Pine Medical Centre",
    "address": "39VX+X54, Bridgetown, Barbados",
    "latlng": [
      13.095,
      -59.604
    ],
    "contact": "Not Listed",
    "website": "Not Listed",
    "hours": "Not Listed"
  },
  {
    "type": "hospital",
    "name": "Gordon Cummins District Hospital",
    "address": "59PV+WW3, Rock Hall, Barbados",
    "latlng": [
      13.187,
      -59.607
    ],
    "contact": "Not Listed",
    "website": "Not Listed",
    "hours": "00:00 - 00:00"
  },
  {
    "type": "hospital",
    "name": "Riverside Medical Clinic",
    "address": "39WR+5G7, Bridgetown, Barbados",
    "latlng": [
      13.095,
      -59.611
    ],
    "contact": "(246) 426-9415",
    "website": "Not Listed",
    "hours": "08:00 - 17:00"
  },
  {
    "type": "hospital",
    "name": "Elcourt Clinic",
    "address": "3C9M+WWF, Maxwell Main Rd, Oistins, Barbados",
    "latlng": [
      13.069,
      -59.567
    ],
    "contact": "(246) 428-9452",
    "website": "elcourtclinicbarbados.com",
    "hours": "07:30 - 18:00"
  },
  {
    "type": "hospital",
    "name": "Workmans Medical Center",
    "address": "Harmony Cot, Workmans, Barbados",
    "latlng": [
      13.141,
      -59.548
    ],
    "contact": "(246) 571-5307",
    "website": "Not Listed",
    "hours": "08:00 - 14:00"
  },
  {
    "type": "hospital",
    "name": "St. Lucy's District Hospital",
    "address": "Hope, St. Lucy",
    "latlng": [
      13.323,
      -59.604
    ],
    "contact": "Not Listed",
    "website": "Not Listed",
    "hours": "Not Listed"
  },
  {
    "type": "hospital",
    "name": "Total Care Medical Centre",
    "address": "4CGH+54F, Salters, Barbados",
    "latlng": [
      13.125,
      -59.574
    ],
    "contact": "(246) 546-3452",
    "website": "Not Listed",
    "hours": "07:00 - 11:30"
  },
  {
    "type": "hospital",
    "name": "Quality Care Medical Centre",
    "address": "Sefton Lodge, Brittons Cross Road, Bridgetown, Barbados",
    "latlng": [
      13.092,
      -59.601
    ],
    "contact": "(246) 228-0243",
    "website": "qcmedicalcentre.com",
    "hours": "07:00 - 17:30"
  },
  {
    "type": "hospital",
    "name": "Paynes Bay Medical Clinic",
    "address": "Highway 1, Barbados",
    "latlng": [
      13.161,
      -59.639
    ],
    "contact": "(246) 432-7751",
    "website": "Not Listed",
    "hours": "Not Listed"
  },
  {
    "type": "hospital",
    "name": "Buttonwood Bay Medical Center",
    "address": "Buttonwood Bay Blvd, Belize City, Belize",
    "latlng": [
      17.513,
      -88.213
    ],
    "contact": "223-1901",
    "website": "Not Listed",
    "hours": "08:00 - 19:00"
  },
  {
    "type": "hospital",
    "name": "Belize Healthcare Partners",
    "address": "Buttonwood Bay Blvd, Belize City, Belize",
    "latlng": [
      17.513,
      -88.213
    ],
    "contact": "223-1901",
    "website": "Not Listed",
    "hours": "08:00 - 19:00"
  },
  {
    "type": "hospital",
    "name": "Karl Heusner Memorial Hospital",
    "address": "Blue Marlin Blvd, Belize City, Belize",
    "latlng": [
      17.512,
      -88.206
    ],
    "contact": "280-5000",
    "website": "belizehealthcare.com",
    "hours": "00:00 - 00:00"
  },
  {
    "type": "hospital",
    "name": "Belize Medical Associates",
    "address": "Blue Marlin Blvd, Belize City, Belize",
    "latlng": [
      17.512,
      -88.206
    ],
    "contact": "280-5000",
    "website": "belizehealthcare.com",
    "hours": "00:00 - 00:00"
  },
  {
    "type": "hospital",
    "name": "National Health Services",
    "address": "St. Thomas St S, Belize City, Belize",
    "latlng": [
      17.51,
      -88.196
    ],
    "contact": "(501) 223-0302",
    "website": "http://www.belizemedical.com",
    "hours": "00:00 - 00:00"
  },
  {
    "type": "hospital",
    "name": "Sugar City Medical Center",
    "address": "Orange Walk, Belize",
    "latlng": [
      18.067,
      -88.571
    ],
    "contact": "665-7623",
    "website": "facebook.com/Sugar-City-Medical-Center-110099150396301",
    "hours": "00:00 - 00:00"
  },
  {
    "type": "hospital",
    "name": "Belize Specialists Hospital / Gastroenterology & Endoscopy Center",
    "address": "3671 Blue Marlin Ave, Belize City, Belize",
    "latlng": [
      17.512,
      -88.206
    ],
    "contact": "223-4666",
    "website": "belizegi.com",
    "hours": "08:00 - 17:00"
  },
  {
    "type": "hospital",
    "name": "Belize Integral Health Centre",
    "address": "Corner of and Curassow Street, Gibnut St, Belize City, Belize",
    "latlng": [
      17.494,
      -88.199
    ],
    "contact": "280-6722",
    "website": "belizehealthcare.com/our-departments/integral-health-center",
    "hours": "07:00 - 17:00"
  },
  {
    "type": "hospital",
    "name": "Northern Regional Hospital",
    "address": "Corner of and Curassow Street, Gibnut St, Belize City, Belize",
    "latlng": [
      17.494,
      -88.199
    ],
    "contact": "280-6722",
    "website": "belizehealthcare.com/our-departments/integral-health-center",
    "hours": "07:00 - 17:00"
  },
  {
    "type": "hospital",
    "name": "St. Luke Hospital",
    "address": "Holy Trinity Street, Orange Walk, Belize",
    "latlng": [
      18.094,
      -88.565
    ],
    "contact": "322-2072",
    "website": "Not Listed",
    "hours": "00:00 - 00:00"
  },
  {
    "type": "hospital",
    "name": "San Ignacio Hospital",
    "address": "5W56+R92, Bullet Tree Road, San Ignacio, Belize",
    "latlng": [
      17.159,
      -89.091
    ],
    "contact": "804-2761",
    "website": "Not Listed",
    "hours": "00:00 - 00:00"
  },
  {
    "type": "hospital",
    "name": "Belmopan Medical Centre",
    "address": "5W56+R92, Bullet Tree Road, San Ignacio, Belize",
    "latlng": [
      17.159,
      -89.091
    ],
    "contact": "804-2761",
    "website": "Not Listed",
    "hours": "00:00 - 00:00"
  },
  {
    "type": "hospital",
    "name": "Garden City Medical Center",
    "address": "Garbutt Creek St Ext, Belmopan, Belize",
    "latlng": [
      17.244,
      -88.778
    ],
    "contact": "822-3179",
    "website": "Not Listed",
    "hours": "08:00 - 18:00"
  },
  {
    "type": "hospital",
    "name": "St. Gabriel Medical Center",
    "address": "5W4H+4GQ, San Ignacio, Belize",
    "latlng": [
      17.155,
      -89.073
    ],
    "contact": "824-2566",
    "website": "Not Listed",
    "hours": "08:00 - 21:00"
  },
  {
    "type": "hospital",
    "name": "Southern Belize Medical Clinic",
    "address": "GHJP+QH4, Happy Avenue, Independence and Mango Creek, Belize",
    "latlng": [
      16.532,
      -88.416
    ],
    "contact": "523-2460",
    "website": "southernbelizemedicalclinic.netlify.app",
    "hours": "08:00 - 17:00"
  },
  {
    "type": "hospital",
    "name": "Northern Medical Specialist Plaza",
    "address": "3CRM+JCJ, Orchid Dr, Orange Walk, Belize",
    "latlng": [
      18.091,
      -88.569
    ],
    "contact": "302-3708",
    "website": "Not Listed",
    "hours": "00:00 - 00:00"
  },
  {
    "type": "hospital",
    "name": "Sugar city medical center",
    "address": "Orange Walk, Belize",
    "latlng": [
      18.067,
      -88.571
    ],
    "contact": "665-7623",
    "website": "facebook.com/Sugar-City-Medical-Center-110099150396301",
    "hours": "00:00 - 00:00"
  },
  {
    "type": "hospital",
    "name": "Corozal Community Hospital",
    "address": "Corozal, Belize",
    "latlng": [
      18.398,
      -88.396
    ],
    "contact": "422-3909",
    "website": "corozal.bz/392",
    "hours": "00:00 - 00:00"
  },
  {
    "type": "hospital",
    "name": "Port Layola Health Center",
    "address": "FQQX+9XP, Fabers Rd, Belize City, Belize",
    "latlng": [
      17.488,
      -88.202
    ],
    "contact": "227-5354",
    "website": "Not Listed",
    "hours": "07:00 - 17:00"
  },
  {
    "type": "hospital",
    "name": "Punta Gorda Hospital",
    "address": "George Price St, Punta Gorda, Belize",
    "latlng": [
      16.093,
      -88.811
    ],
    "contact": "722-2145",
    "website": "puntagordabelize.com/pg/medical.htm",
    "hours": "00:00 - 00:00"
  },
  {
    "type": "hospital",
    "name": "Punta Gorda Hospital",
    "address": "George Price St, Punta Gorda, Belize",
    "latlng": [
      16.093,
      -88.811
    ],
    "contact": "722-2145",
    "website": "puntagordabelize.com/pg/medical.htm",
    "hours": "00:00 - 00:00"
  },
  {
    "type": "hospital",
    "name": "King Edward VII Memorial Hospital",
    "address": "7 Point Finger Rd, Paget DV 04, Bermuda",
    "latlng": [
      32.292,
      -64.769
    ],
    "contact": "(441) 236-2345",
    "website": "bermudahospitals.bm",
    "hours": "00:00 - 00:00"
  },
  {
    "type": "hospital",
    "name": "Point Finger Road Medical Center",
    "address": "16 Point Finger Rd, PG 03, Bermuda",
    "latlng": [
      32.292,
      -64.77
    ],
    "contact": "(441) 236-4094",
    "website": "pfrmedicalcenter.com",
    "hours": "08:00 - 17:00"
  },
  {
    "type": "hospital",
    "name": "Lamb Foggo Urgent Care Centre",
    "address": "1 Hall Street St George's, DD 03, Bermuda",
    "latlng": [
      32.368,
      -64.68
    ],
    "contact": "(441) 298-7700",
    "website": "bermudahospitals.bm",
    "hours": "09:00 - 21:00"
  },
  {
    "type": "hospital",
    "name": "Island Health Services",
    "address": "13 Water Street St.George's, St.George's GE 05, Bermuda",
    "latlng": [
      32.381,
      -64.68
    ],
    "contact": "Not Listed",
    "website": "Not Listed",
    "hours": "08:00 - 17:00"
  },
  {
    "type": "hospital",
    "name": "Executive Health Services",
    "address": "Hamilton, Bermuda",
    "latlng": [
      32.295,
      -64.782
    ],
    "contact": "(441) 292-5209",
    "website": "Not Listed",
    "hours": "Not Listed"
  },
  {
    "type": "hospital",
    "name": "Island Health Services Limited",
    "address": "40 Point Finger Rd, DV 04, Bermuda",
    "latlng": [
      32.29,
      -64.768
    ],
    "contact": "(441) 236-0084",
    "website": "ihs.bm",
    "hours": "08:00 - 19:00"
  },
  {
    "type": "hospital",
    "name": "Bermuda Medical Specialties Group",
    "address": "3 Reid Street, Hamilton, Bermuda",
    "latlng": [
      32.293,
      -64.788
    ],
    "contact": "(441) 292-0022",
    "website": "bermudamedical.com",
    "hours": "09:00 - 17:00"
  },
  {
    "type": "hospital",
    "name": "Bermuda HealthCare Services",
    "address": "19 The Lane Paget Parish PG, 05, Bermuda",
    "latlng": [
      32.291,
      -64.774
    ],
    "contact": "(441) 236-2810",
    "website": "bhcs.bm",
    "hours": "08:30 - 17:30"
  },
  {
    "type": "hospital",
    "name": "Mid-Atlantic Wellness Institute",
    "address": "19 The Lane Paget Parish PG, 05, Bermuda",
    "latlng": [
      32.291,
      -64.774
    ],
    "contact": "(441) 236-2810",
    "website": "bhcs.bm",
    "hours": "08:30 - 17:30"
  },
  {
    "type": "hospital",
    "name": "Premier Health and Wellness Center",
    "address": "Devon Spring Rd, Devonshire Parish, Bermuda",
    "latlng": [
      32.306,
      -64.748
    ],
    "contact": "(441) 236-3770",
    "website": "bermudahospitals.bm",
    "hours": "00:00 - 00:00"
  },
  {
    "type": "hospital",
    "name": "BMSG Health Express Urgent Care",
    "address": "5 Reid Street Hamilton HM, Hamilton 11, Bermuda",
    "latlng": [
      32.293,
      -64.788
    ],
    "contact": "(441) 292-0022",
    "website": "bermudamedical.com/urgent-care#",
    "hours": "09:00 - 17:00"
  },
  {
    "type": "hospital",
    "name": "Emergency Unit, King Edward VII Memorial Hospital",
    "address": "7 Point Finger Rd, DV 04, Bermuda",
    "latlng": [
      32.292,
      -64.768
    ],
    "contact": "(441) 239-1359",
    "website": "bermudahospitals.bm/contact-bhb/telephone-directory",
    "hours": "Not Listed"
  },
  {
    "type": "hospital",
    "name": "HMC Burnaby Urgent Care & Medical Imaging (Formerly The Hamilton Medical Center Ltd)",
    "address": "10-12 Burnaby St, Hamilton HM 11, Bermuda",
    "latlng": [
      32.293,
      -64.786
    ],
    "contact": "(441) 400-8378",
    "website": "hmc.bm",
    "hours": "06:45 - 19:00"
  },
  {
    "type": "hospital",
    "name": "Bermuda Life Center",
    "address": "131 Front Street, 1st Floor City of Hamilton, Hamilton HM 12, Bermuda",
    "latlng": [
      32.293,
      -64.781
    ],
    "contact": "(441) 436-3010",
    "website": "bermuda-life-center.business.site",
    "hours": "07:30 - 17:00"
  },
  {
    "type": "hospital",
    "name": "Brown-Darrell Clinic",
    "address": "129 South Road Warwick WK, 10, Bermuda",
    "latlng": [
      32.317,
      -64.717
    ],
    "contact": "(441) 297-3333",
    "website": "Not Listed",
    "hours": "Not Listed"
  },
  {
    "type": "hospital",
    "name": "Department of Health Warwick Clinic",
    "address": "Bermuda",
    "latlng": [
      32.266,
      -64.808
    ],
    "contact": "Not Listed",
    "website": "Not Listed",
    "hours": "Not Listed"
  },
  {
    "type": "hospital",
    "name": "Hope Healthcare",
    "address": "14 Woodbourne Ave, Hamilton, Bermuda",
    "latlng": [
      32.293,
      -64.792
    ],
    "contact": "(441) 295-9105",
    "website": "hopehealthcare.bm",
    "hours": "08:00 - 17:00"
  },
  {
    "type": "hospital",
    "name": "Bermuda Cancer and Health Centre",
    "address": "46 Point Finger Rd, DV 04, Bermuda",
    "latlng": [
      32.289,
      -64.767
    ],
    "contact": "(441) 236-1001",
    "website": "chc.bm",
    "hours": "07:30 - 17:00"
  },
  {
    "type": "hospital",
    "name": "Department Of Health - Health Centre",
    "address": "Victoria cor. Union Streets Hamilton HM, Hamilton 19, Bermuda",
    "latlng": [
      32.295,
      -64.782
    ],
    "contact": "(441) 278-4900",
    "website": "Not Listed",
    "hours": "Not Listed"
  },
  {
    "type": "hospital",
    "name": "The Pulmonology Specialists Ltd.",
    "address": "Cumberland House, Wesley St, Hamilton 11, Bermuda",
    "latlng": [
      32.295,
      -64.788
    ],
    "contact": "Not Listed",
    "website": "Not Listed",
    "hours": "Not Listed"
  },
  {
    "type": "hospital",
    "name": "St. Eustatius Health Care Foundation",
    "address": "H.M. Queen Beatrix rd 25 St. Eustatius, Oranjestad, Caribbean Netherlands",
    "latlng": [
      17.482,
      -62.984
    ],
    "contact": "318 2211",
    "website": "sehcf.org",
    "hours": "00:00 - 00:00"
  },
  {
    "type": "hospital",
    "name": "giliandro's fashion Unisex",
    "address": "H.M. Queen Beatrix weg 25 Oranjestad, Oranjestad, Caribbean Netherlands",
    "latlng": [
      17.482,
      -62.984
    ],
    "contact": "318 6585",
    "website": "sehcf.org",
    "hours": "Not Listed"
  },
  {
    "type": "hospital",
    "name": "Mental Health Caribbean",
    "address": "Catherine Lespier Road 1, Oranjestad, Caribbean Netherlands",
    "latlng": [
      17.491,
      -62.984
    ],
    "contact": "318 0099",
    "website": "mentalhealthcaribbean.com",
    "hours": "08:30 - 16:30"
  },
  {
    "type": "hospital",
    "name": "A.M. Edwards Medical Center",
    "address": "JPGX+PG5, The Bottom, Caribbean Netherlands",
    "latlng": [
      17.626,
      -63.253
    ],
    "contact": "416 3288",
    "website": "sabahealthcare.org",
    "hours": "00:00 - 00:00"
  },
  {
    "type": "hospital",
    "name": "Peebles Hospital",
    "address": "Main St, Road Town, British Virgin Islands",
    "latlng": [
      18.417,
      -64.621
    ],
    "contact": "+1 284-494-3497",
    "website": "http://www.bvihsa.vg/peebles-hospital-services/",
    "hours": "00:00 - 00:00"
  },
  {
    "type": "hospital",
    "name": "Advanced Medical Center",
    "address": "Sir Francis Drake Highway Albion, Sea Cows Bay Tortola, VG1110, British Virgin Islands",
    "latlng": [
      18.412,
      -64.633
    ],
    "contact": "(284) 441-5061",
    "website": "amci.business.site",
    "hours": "Not Listed"
  },
  {
    "type": "hospital",
    "name": "Eureka Medical Clinic",
    "address": "Road Town, British Virgin Islands",
    "latlng": [
      18.424,
      -64.622
    ],
    "contact": "(284) 444-2346",
    "website": "eurekamedicalclinic.com",
    "hours": "08:00 - 18:00"
  },
  {
    "type": "hospital",
    "name": "The Bougainvillea Clinic Ltd.",
    "address": "No.15, Abbott Road Tortola Road Town, Road Town VG1110, British Virgin Islands",
    "latlng": [
      18.42,
      -64.621
    ],
    "contact": "(284) 444-2181",
    "website": "bougainvilleaclinic.com",
    "hours": "08:00 - 17:00"
  },
  {
    "type": "hospital",
    "name": "Nurse Iris O’Neal Clinic",
    "address": "CHW9+8M3, Unnamed Road, Spanish Town, British Virgin Islands",
    "latlng": [
      18.445,
      -64.433
    ],
    "contact": "(284) 852-7700",
    "website": "Not Listed",
    "hours": "Not Listed"
  },
  {
    "type": "hospital",
    "name": "Apex Medical Center",
    "address": "Millionaire Rd, Spanish Town, Virgin Gorda, British Virgin Islands",
    "latlng": [
      18.45,
      -64.436
    ],
    "contact": "(284) 345-2620",
    "website": "m.facebook.com/apexmedicalvg",
    "hours": "Not Listed"
  },
  {
    "type": "hospital",
    "name": "Penn Medical Center & Pharmacy",
    "address": "Building, 1st Flr, Ste 104 Rodus Building Waterfront Drive Road Town, Road Town, British Virgin Islands",
    "latlng": [
      18.411,
      -64.615
    ],
    "contact": "(284) 495-3288",
    "website": "pennmedci.com",
    "hours": "09:00 - 17:00"
  },
  {
    "type": "hospital",
    "name": "Jost Van Dyke Clinic",
    "address": "C6WX+98, Belle Vue, British Virgin Islands",
    "latlng": [
      18.446,
      -64.754
    ],
    "contact": "(284) 346-1709",
    "website": "Not Listed",
    "hours": "Not Listed"
  },
  {
    "type": "hospital",
    "name": "VI Medical Clinic",
    "address": "Sir Francis Drake Hwy, British Virgin Islands",
    "latlng": [
      18.407,
      -64.633
    ],
    "contact": "(284) 494-0971",
    "website": "Not Listed",
    "hours": "16:00 - 06:30"
  },
  {
    "type": "hospital",
    "name": "Health City Cayman Islands",
    "address": "9 Forum Ln, Cayman Islands",
    "latlng": [
      19.321,
      -81.38
    ],
    "contact": "(345) 640-4040",
    "website": "healthcitycaymanislands.com",
    "hours": "12:00 - 16:00"
  },
  {
    "type": "hospital",
    "name": "CTMH | Doctors Hospital",
    "address": "16 Middle Rd, George Town KY1-1104, Cayman Islands",
    "latlng": [
      19.29,
      -81.385
    ],
    "contact": "(345) 949-6066",
    "website": "doctorshospitalcayman.com",
    "hours": "00:00 - 00:00"
  },
  {
    "type": "hospital",
    "name": "Cayman Islands Hospital / Health Services Authority",
    "address": "95 Hospital Rd, George Town KY1-1103, Cayman Islands",
    "latlng": [
      19.289,
      -81.382
    ],
    "contact": "(345) 949-8600",
    "website": "hsa.ky",
    "hours": "00:00 - 00:00"
  },
  {
    "type": "hospital",
    "name": "Faith Hospital",
    "address": "P58F+66F, Dennis Foster Rd, Stake Bay, Cayman Islands",
    "latlng": [
      19.715,
      -79.829
    ],
    "contact": "(345) 948-2243",
    "website": "hsa.ky/faith-hospital",
    "hours": "00:00 - 00:00"
  },
  {
    "type": "hospital",
    "name": "Smith Road Medical Centre",
    "address": "Smith Rd, George Town, Cayman Islands",
    "latlng": [
      19.288,
      -81.379
    ],
    "contact": "Not Listed",
    "website": "Not Listed",
    "hours": "Not Listed"
  },
  {
    "type": "hospital",
    "name": "Jesse Ritch Memorial Health Center",
    "address": "7QM3+3RC, Bodden Town, Cayman Islands",
    "latlng": [
      19.282,
      -81.248
    ],
    "contact": "Not Listed",
    "website": "Not Listed",
    "hours": "Not Listed"
  },
  {
    "type": "hospital",
    "name": "North Side Health Centre",
    "address": "925 North Side Rd, North Side, Cayman Islands",
    "latlng": [
      19.349,
      -81.204
    ],
    "contact": "345-947-9525",
    "website": "Not Listed",
    "hours": "Not Listed"
  },
  {
    "type": "hospital",
    "name": "Medical Centre",
    "address": "Strand Shopping Centre, West Bay Rd, SMB Grand Cayman KY1, 1205, Cayman Islands",
    "latlng": [
      19.331,
      -81.382
    ],
    "contact": "(345) 945-7077",
    "website": "caymandoctor.ky",
    "hours": "08:30 - 17:00"
  },
  {
    "type": "hospital",
    "name": "East End Health Centre",
    "address": "2367 Sea View Rd, East End, Cayman Islands",
    "latlng": [
      19.295,
      -81.116
    ],
    "contact": "(345) 947-7440",
    "website": "Not Listed",
    "hours": "07:00 - 17:00"
  },
  {
    "type": "hospital",
    "name": "Health City Cayman Islands Camana Bay Clinic",
    "address": "9 Forum Ln, Cayman Islands",
    "latlng": [
      19.321,
      -81.38
    ],
    "contact": "(345) 640-4040",
    "website": "healthcitycaymanislands.com",
    "hours": "12:00 - 16:00"
  },
  {
    "type": "hospital",
    "name": "Total Health Clinic",
    "address": "Total Health The Grand Pavilion Commercial Centre, 802, West Bay Road Grand Cayman KY1, 1209, Cayman Islands",
    "latlng": [
      19.329,
      -81.383
    ],
    "contact": "(345) 333-2222",
    "website": "totalhealth.ky",
    "hours": "08:00 - 20:00"
  },
  {
    "type": "hospital",
    "name": "Royale Medical and Wellness Center",
    "address": "36 West Bay Road, BayTown Plaza, George Town Grand Cayman KY1, 1501, Cayman Islands",
    "latlng": [
      19.307,
      -81.386
    ],
    "contact": "(345) 769-6230",
    "website": "royalemedical.ky",
    "hours": "08:00 - 17:00"
  },
  {
    "type": "hospital",
    "name": "HSA Urgent Care Walk-In Clinic",
    "address": "95 Hospital Road George Town Grand Cayman, 95 Hospital Rd, George Town KY1-1103, Cayman Islands",
    "latlng": [
      19.289,
      -81.383
    ],
    "contact": "(345) 949-8600",
    "website": "hsa.ky/medical-services/urgent-care",
    "hours": "08:00 - 23:00"
  },
  {
    "type": "hospital",
    "name": "TrinCay Medical Service & Urgent Care",
    "address": "55 Market, 1204 Suite Jasmin Court Road Camana Bay Grand Cayman KY1, 1006, Cayman Islands",
    "latlng": [
      19.322,
      -81.381
    ],
    "contact": "(345) 943-4633",
    "website": "Not Listed",
    "hours": "08:00 - 18:00"
  },
  {
    "type": "hospital",
    "name": "Savannah Medical Clinic",
    "address": "Hirst Rd, Savannah, George Town, Cayman Islands",
    "latlng": [
      19.272,
      -81.3
    ],
    "contact": "345-749-6066",
    "website": "https://www.doctorshospitalcayman.com/",
    "hours": "09:00 - 19:00"
  },
  {
    "type": "hospital",
    "name": "Doctors Express Urgent Care",
    "address": "81 Godfrey Nixon Way George Town Grand Cayman KY KY1, 1107, 81 Godfrey Nixon Way, George Town, Cayman Islands",
    "latlng": [
      19.3,
      -81.376
    ],
    "contact": "(345) 745-6000",
    "website": "doctorsexpress.ky",
    "hours": "09:00 - 21:00"
  },
  {
    "type": "hospital",
    "name": "Oasis Medical Group",
    "address": "Centennial Towers, W Bay Rd, West Bay, Cayman Islands",
    "latlng": [
      19.369,
      -81.402
    ],
    "contact": "943-6066",
    "website": "omgcayman.com",
    "hours": "08:30 - 17:30"
  },
  {
    "type": "hospital",
    "name": "West Bay Nurses’ Health Centre",
    "address": "9HHW+JFM, Reverend Blackman Rd, West Bay, Cayman Islands",
    "latlng": [
      19.379,
      -81.406
    ],
    "contact": "(345) 949-3439",
    "website": "Not Listed",
    "hours": "08:30 - 16:00"
  },
  {
    "type": "hospital",
    "name": "Little Cayman Clinic",
    "address": "Spot Bay Rd, Cayman Islands",
    "latlng": [
      19.666,
      -80.086
    ],
    "contact": "Not Listed",
    "website": "Not Listed",
    "hours": "Not Listed"
  },
  {
    "type": "hospital",
    "name": "Cayman Clinic",
    "address": "439 Crewe Rd, George Town, Cayman Islands",
    "latlng": [
      19.289,
      -81.364
    ],
    "contact": "(345) 949-7400",
    "website": "caymanclinic.ky",
    "hours": "08:00 - 17:00"
  },
  {
    "type": "hospital",
    "name": "Hospital Hermanos Ameijeiras",
    "address": "Calle, # 701 San Lazaro, La Habana 10400, Cuba",
    "latlng": [
      23.139,
      -82.373
    ],
    "contact": "(07) 8761210",
    "website": "www.hospitalameijeiras.sld.cu",
    "hours": "00:00 - 00:00"
  },
  {
    "type": "hospital",
    "name": "La Pradera International Health Center",
    "address": "y 15, Calle 230, Matanzas, Cuba",
    "latlng": [
      23.056,
      -81.566
    ],
    "contact": "(07) 2725273",
    "website": "Not Listed",
    "hours": "Not Listed"
  },
  {
    "type": "hospital",
    "name": "Servimed",
    "address": "4HCP+CR4, Havana, Cuba",
    "latlng": [
      23.121,
      -82.415
    ],
    "contact": "Not Listed",
    "website": "Not Listed",
    "hours": "Not Listed"
  },
  {
    "type": "hospital",
    "name": "Carlos J. Finlay Military Hospital",
    "address": "3HJ9+J7R, Avenida 31, La Habana, Cuba",
    "latlng": [
      23.081,
      -82.434
    ],
    "contact": "(07) 2743000",
    "website": "Not Listed",
    "hours": "08:30 - 17:00"
  },
  {
    "type": "hospital",
    "name": "Clinica Internacional Cayo santa Maria",
    "address": "Cayo Santa María, Cuba",
    "latlng": [
      22.653,
      -79.054
    ],
    "contact": "(042) 350310",
    "website": "cayosantamaria.info/health.html",
    "hours": "00:00 - 00:00"
  },
  {
    "type": "hospital",
    "name": "Hospital Clínico Quirúrgico Calixto García",
    "address": "4JM8+X3V, Havana, Cuba",
    "latlng": [
      23.135,
      -82.387
    ],
    "contact": "(07) 8382138",
    "website": "ecured.cu/Hospital_Universitario_General_Calixto_Garc%C3%ADa",
    "hours": "00:00 - 00:00"
  },
  {
    "type": "hospital",
    "name": "Hospital William Soler",
    "address": "3J65+X75, Aldabo, La Habana, Cuba",
    "latlng": [
      23.062,
      -82.394
    ],
    "contact": "(07) 6443521",
    "website": "Not Listed",
    "hours": "00:00 - 00:00"
  },
  {
    "type": "hospital",
    "name": "Hospital Mario Munoz Monroy",
    "address": "P3GX+8MG, Colón, Cuba",
    "latlng": [
      22.725,
      -80.903
    ],
    "contact": "Not Listed",
    "website": "Not Listed",
    "hours": "00:00 - 00:00"
  },
  {
    "type": "hospital",
    "name": "CSMC",
    "address": "5VC8+9M9, 5ta. Avenida, La Habana, Cuba",
    "latlng": [
      23.171,
      -82.135
    ],
    "contact": "(07) 2090977",
    "website": "smcsalud.cu",
    "hours": "08:00 - 17:00"
  },
  {
    "type": "hospital",
    "name": "Hospital Materno Ramon Gonzalez Coro",
    "address": "21 La Habana Plaza de la Revolución, La Habana, Cuba",
    "latlng": [
      23.13,
      -82.4
    ],
    "contact": "(07) 8382613",
    "website": "Not Listed",
    "hours": "00:00 - 00:00"
  },
  {
    "type": "hospital",
    "name": "Hospital Clínico Quirúrgico",
    "address": "142 Principe, La Habana, Cuba",
    "latlng": [
      23.114,
      -82.371
    ],
    "contact": "(07) 8762059",
    "website": "Not Listed",
    "hours": "00:00 - 00:00"
  },
  {
    "type": "hospital",
    "name": "Hospital Universitario Vladímir Ilich Lenin",
    "address": "No 2, Ave. Lenin, Holguín 80100, Cuba",
    "latlng": [
      20.888,
      -76.271
    ],
    "contact": "(024) 462011",
    "website": "Not Listed",
    "hours": "00:00 - 00:00"
  },
  {
    "type": "hospital",
    "name": "Clinica Internacional Varadero",
    "address": "60, 5Q32+J6H, Varadero, Cuba",
    "latlng": [
      23.154,
      -81.252
    ],
    "contact": "(045) 667226",
    "website": "Not Listed",
    "hours": "00:00 - 00:00"
  },
  {
    "type": "hospital",
    "name": "Clínica Central Cira García",
    "address": "Calle 20 NO. 4101 esq. a Av. 41 Miramar, La Habana, Cuba",
    "latlng": [
      23.118,
      -82.416
    ],
    "contact": "(07) 2042811",
    "website": "cirag.cu",
    "hours": "00:00 - 00:00"
  },
  {
    "type": "hospital",
    "name": "Policlínico de Especialidades",
    "address": "4MFR+QQ2, Havana, Cuba",
    "latlng": [
      23.124,
      -82.31
    ],
    "contact": "Not Listed",
    "website": "Not Listed",
    "hours": "Not Listed"
  },
  {
    "type": "hospital",
    "name": "Hospital Naval",
    "address": "La Habana, Cuba",
    "latlng": [
      23.153,
      -82.335
    ],
    "contact": "Not Listed",
    "website": "Not Listed",
    "hours": "Not Listed"
  },
  {
    "type": "hospital",
    "name": "Pediatrico Centro Habana",
    "address": "Benjumeda y, 4JGF+62J, Morales, La Habana, Cuba",
    "latlng": [
      23.125,
      -82.38
    ],
    "contact": "(07) 8775552",
    "website": "ecured.cu/Hospital_Pedi%C3%A1trico_de_Centro_Habana",
    "hours": "00:00 - 00:00"
  },
  {
    "type": "hospital",
    "name": "Havana Psychiatric Hospital",
    "address": "2J62+VGF, Havana, Cuba",
    "latlng": [
      23.012,
      -82.401
    ],
    "contact": "(07) 6468331",
    "website": "Not Listed",
    "hours": "00:00 - 00:00"
  },
  {
    "type": "hospital",
    "name": "Centro de Investigaciones Médicas Quirúrgicas (CIMEQ)",
    "address": "3GJM+374, Havana, Cuba",
    "latlng": [
      23.08,
      -82.469
    ],
    "contact": "(07) 8581000",
    "website": "sld.cu/sitios/cimeq",
    "hours": "00:00 - 00:00"
  },
  {
    "type": "hospital",
    "name": "Hogar Materno",
    "address": "lamparilla y, 4MQ2+83W, Mercaderes, La Habana, Cuba",
    "latlng": [
      23.138,
      -82.352
    ],
    "contact": "Not Listed",
    "website": "Not Listed",
    "hours": "Not Listed"
  },
  {
    "type": "hospital",
    "name": "Princess Margaret Hospital",
    "address": "610 University Ave, Toronto, Ontario, Canada",
    "latlng": [
      43.658,
      -79.393
    ],
    "contact": "+1-416-946-2000",
    "website": "www.theprincessmargaret.ca",
    "hours": "00:00 - 00:00"
  },
  {
    "type": "hospital",
    "name": "Justin Fadipe Hospital",
    "address": "CHF9+WF4, Cuba Rd, Mero, Dominica",
    "latlng": [
      15.424,
      -61.433
    ],
    "contact": "(767) 449-6711",
    "website": "Not Listed",
    "hours": "Not Listed"
  },
  {
    "type": "hospital",
    "name": "Marigot Hospital",
    "address": "GPR8+8RW, Dr Nicholas Liverpool Hwy, Marigot, Dominica",
    "latlng": [
      15.541,
      -61.285
    ],
    "contact": "Not Listed",
    "website": "housingdominica.com/projects/marigot-hospital",
    "hours": "Not Listed"
  },
  {
    "type": "hospital",
    "name": "MDTH Medical Centre1",
    "address": "8J38+4J2, River St, Roseau, Dominica",
    "latlng": [
      15.302,
      -61.386
    ],
    "contact": "Not Listed",
    "website": "Not Listed",
    "hours": "Not Listed"
  },
  {
    "type": "hospital",
    "name": "Roseau Health Center",
    "address": "8J28+3FV, Roseau, Dominica",
    "latlng": [
      15.3,
      -61.386
    ],
    "contact": "(767) 266-3469",
    "website": "Not Listed",
    "hours": "Not Listed"
  },
  {
    "type": "hospital",
    "name": "GrandBay Health District",
    "address": "Unnamed Road, 6MVH+HRF, Berekua, Dominica",
    "latlng": [
      15.244,
      -61.323
    ],
    "contact": "Not Listed",
    "website": "Not Listed",
    "hours": "Not Listed"
  },
  {
    "type": "hospital",
    "name": "Mahaut River Health Centre",
    "address": "FPGX+G8X, Bataka, Dominica",
    "latlng": [
      15.476,
      -61.254
    ],
    "contact": "Not Listed",
    "website": "Not Listed",
    "hours": "Not Listed"
  },
  {
    "type": "hospital",
    "name": "Portsmouth Hospital",
    "address": "Pembroke St, Portsmouth, Dominica",
    "latlng": [
      15.579,
      -61.455
    ],
    "contact": "Not Listed",
    "website": "Not Listed",
    "hours": "00:00 - 00:00"
  },
  {
    "type": "hospital",
    "name": "Mahaut Health Centre",
    "address": "9J72+6QM, Mahaut, Dominica",
    "latlng": [
      15.363,
      -61.4
    ],
    "contact": "(767) 266-4051",
    "website": "Not Listed",
    "hours": "08:00 - 15:00"
  },
  {
    "type": "hospital",
    "name": "MDTH Medical Centre3",
    "address": "HG7W+CGJ, Ross Blvd, Portsmouth, Dominica",
    "latlng": [
      15.563,
      -61.456
    ],
    "contact": "Not Listed",
    "website": "Not Listed",
    "hours": "Not Listed"
  },
  {
    "type": "hospital",
    "name": "Belles Health Clinic",
    "address": "CMM9+VVP, Mero, Dominica",
    "latlng": [
      15.434,
      -61.332
    ],
    "contact": "Not Listed",
    "website": "Not Listed",
    "hours": "Not Listed"
  },
  {
    "type": "hospital",
    "name": "Anse-De-Mai Health Center",
    "address": "HJVC+727, Anse De Mai, Dominica",
    "latlng": [
      15.593,
      -61.382
    ],
    "contact": "Not Listed",
    "website": "Not Listed",
    "hours": "08:00 - 18:00"
  },
  {
    "type": "hospital",
    "name": "La Plaine Health Centre",
    "address": "8QJ4+JPR, La Plaine, Dominica",
    "latlng": [
      15.331,
      -61.245
    ],
    "contact": "Not Listed",
    "website": "Not Listed",
    "hours": "Not Listed"
  },
  {
    "type": "hospital",
    "name": "MDTH Medical Centre5",
    "address": "Worthington St, Dominica",
    "latlng": [
      15.367,
      -61.258
    ],
    "contact": "Not Listed",
    "website": "Not Listed",
    "hours": "Not Listed"
  },
  {
    "type": "hospital",
    "name": "MDTH Medical Centre2",
    "address": "CH4H+6WC, Edward Oliver Leblanc Hwy, St Joseph, Dominica",
    "latlng": [
      15.405,
      -61.422
    ],
    "contact": "Not Listed",
    "website": "Not Listed",
    "hours": "Not Listed"
  },
  {
    "type": "hospital",
    "name": "A-Medic Urgent care",
    "address": "23 Great Marlborough Street, Roseau, Dominica",
    "latlng": [
      15.299,
      -61.389
    ],
    "contact": "(767) 612-1328",
    "website": "Not Listed",
    "hours": "08:00 - 16:00"
  },
  {
    "type": "hospital",
    "name": "MDTH Medical Centre4",
    "address": "Wiers Rd, Dominica",
    "latlng": [
      15.544,
      -61.295
    ],
    "contact": "Not Listed",
    "website": "Not Listed",
    "hours": "Not Listed"
  },
  {
    "type": "hospital",
    "name": "Castle Bruce Health Centre",
    "address": "CPPR+48J, Castle Bruce, Dominica",
    "latlng": [
      15.435,
      -61.261
    ],
    "contact": "(767) 266-4113",
    "website": "Not Listed",
    "hours": "08:00 - 16:00"
  },
  {
    "type": "hospital",
    "name": "RUSM Health Clinic",
    "address": "RUSM Campus, Picard,, HG5R+32X, Portsmouth, Dominica",
    "latlng": [
      15.557,
      -61.462
    ],
    "contact": "Not Listed",
    "website": "Not Listed",
    "hours": "Not Listed"
  },
  {
    "type": "hospital",
    "name": "Newtown Healthcare Center",
    "address": "18 Victoria St, Roseau, Dominica",
    "latlng": [
      15.294,
      -61.385
    ],
    "contact": "Not Listed",
    "website": "Not Listed",
    "hours": "08:00 - 18:00"
  },
  {
    "type": "hospital",
    "name": "Hospital IMG en Punta Cana",
    "address": "Carretera Higüey - Miches esq, Punta Cana 23000, Dominican Republic",
    "latlng": [
      18.663,
      -68.432
    ],
    "contact": "(809) 285-6116",
    "website": "www.img.hospital",
    "hours": "00:00 - 00:00"
  },
  {
    "type": "hospital",
    "name": "International Medical Center TCMS",
    "address": "Plaza Brisas de Bavaro 502 Punta Cana, Bavaro 23000, Dominican Republic",
    "latlng": [
      18.688,
      -68.446
    ],
    "contact": "(809) 552-1117",
    "website": "internationalmedicalcenter.com",
    "hours": "00:00 - 00:00"
  },
  {
    "type": "hospital",
    "name": "International Medical Center TCMS",
    "address": "Plaza Brisas de Bavaro 502 Punta Cana, Bavaro 23000, Dominican Republic",
    "latlng": [
      18.688,
      -68.446
    ],
    "contact": "(809) 552-1117",
    "website": "internationalmedicalcenter.com",
    "hours": "00:00 - 00:00"
  },
  {
    "type": "hospital",
    "name": "Centro Médico Punta Cana",
    "address": "Avenida España, Bávaro, Dominican Republic",
    "latlng": [
      18.686,
      -68.451
    ],
    "contact": "8095521506",
    "website": "centromedicopuntacana.com",
    "hours": "00:00 - 00:00"
  },
  {
    "type": "hospital",
    "name": "Hospital de Alta Complejidad y Medicina Avanzada HACMA MEDICAL CENTER",
    "address": "31000, Dominican Republic",
    "latlng": [
      19.24,
      -70.323
    ],
    "contact": "Not Listed",
    "website": "Not Listed",
    "hours": "Not Listed"
  },
  {
    "type": "hospital",
    "name": "HS Medical Center",
    "address": "31000, Dominican Republic",
    "latlng": [
      19.24,
      -70.323
    ],
    "contact": "Not Listed",
    "website": "Not Listed",
    "hours": "Not Listed"
  },
  {
    "type": "hospital",
    "name": "Hospital Padre Billini",
    "address": "Calle Florence Terry Griswuld, Ensanche Naco, Dominican Republic",
    "latlng": [
      18.473,
      -69.929
    ],
    "contact": "8095621690",
    "website": "https://www.hsmedicalcenter.com",
    "hours": "07:30 - 22:00"
  },
  {
    "type": "hospital",
    "name": "Punta Gorda Hospital",
    "address": "George Price St, Punta Gorda, Belize",
    "latlng": [
      16.093,
      -88.811
    ],
    "contact": "722-2145",
    "website": "puntagordabelize.com/pg/medical.htm",
    "hours": "00:00 - 00:00"
  },
  {
    "type": "hospital",
    "name": "King Edward VII Memorial Hospital",
    "address": "7 Point Finger Rd, Paget DV 04, Bermuda",
    "latlng": [
      32.292,
      -64.769
    ],
    "contact": "(441) 236-2345",
    "website": "bermudahospitals.bm",
    "hours": "00:00 - 00:00"
  },
  {
    "type": "hospital",
    "name": "Point Finger Road Medical Center",
    "address": "16 Point Finger Rd, PG 03, Bermuda",
    "latlng": [
      32.292,
      -64.77
    ],
    "contact": "(441) 236-4094",
    "website": "pfrmedicalcenter.com",
    "hours": "08:00 - 17:00"
  },
  {
    "type": "hospital",
    "name": "Lamb Foggo Urgent Care Centre",
    "address": "1 Hall Street St George's, DD 03, Bermuda",
    "latlng": [
      32.368,
      -64.68
    ],
    "contact": "(441) 298-7700",
    "website": "bermudahospitals.bm",
    "hours": "09:00 - 21:00"
  },
  {
    "type": "hospital",
    "name": "Island Health Services",
    "address": "13 Water Street St.George's, St.George's GE 05, Bermuda",
    "latlng": [
      32.381,
      -64.68
    ],
    "contact": "Not Listed",
    "website": "Not Listed",
    "hours": "08:00 - 17:00"
  },
  {
    "type": "hospital",
    "name": "Executive Health Services",
    "address": "Hamilton, Bermuda",
    "latlng": [
      32.295,
      -64.782
    ],
    "contact": "(441) 292-5209",
    "website": "Not Listed",
    "hours": "Not Listed"
  },
  {
    "type": "hospital",
    "name": "Island Health Services Limited",
    "address": "40 Point Finger Rd, DV 04, Bermuda",
    "latlng": [
      32.29,
      -64.768
    ],
    "contact": "(441) 236-0084",
    "website": "ihs.bm",
    "hours": "08:00 - 19:00"
  },
  {
    "type": "hospital",
    "name": "Bermuda Medical Specialties Group",
    "address": "3 Reid Street, Hamilton, Bermuda",
    "latlng": [
      32.293,
      -64.788
    ],
    "contact": "(441) 292-0022",
    "website": "bermudamedical.com",
    "hours": "09:00 - 17:00"
  },
  {
    "type": "hospital",
    "name": "Bermuda HealthCare Services",
    "address": "19 The Lane Paget Parish PG, 05, Bermuda",
    "latlng": [
      32.291,
      -64.774
    ],
    "contact": "(441) 236-2810",
    "website": "bhcs.bm",
    "hours": "08:30 - 17:30"
  },
  {
    "type": "hospital",
    "name": "Mid-Atlantic Wellness Institute",
    "address": "19 The Lane Paget Parish PG, 05, Bermuda",
    "latlng": [
      32.291,
      -64.774
    ],
    "contact": "(441) 236-2810",
    "website": "bhcs.bm",
    "hours": "08:30 - 17:30"
  },
  {
    "type": "hospital",
    "name": "Premier Health and Wellness Center",
    "address": "Devon Spring Rd, Devonshire Parish, Bermuda",
    "latlng": [
      32.306,
      -64.748
    ],
    "contact": "(441) 236-3770",
    "website": "bermudahospitals.bm",
    "hours": "00:00 - 00:00"
  },
  {
    "type": "hospital",
    "name": "BMSG Health Express Urgent Care",
    "address": "5 Reid Street Hamilton HM, Hamilton 11, Bermuda",
    "latlng": [
      32.293,
      -64.788
    ],
    "contact": "(441) 292-0022",
    "website": "bermudamedical.com/urgent-care#",
    "hours": "09:00 - 17:00"
  },
  {
    "type": "hospital",
    "name": "Emergency Unit, King Edward VII Memorial Hospital",
    "address": "7 Point Finger Rd, DV 04, Bermuda",
    "latlng": [
      32.292,
      -64.768
    ],
    "contact": "(441) 239-1359",
    "website": "bermudahospitals.bm/contact-bhb/telephone-directory",
    "hours": "Not Listed"
  },
  {
    "type": "hospital",
    "name": "HMC Burnaby Urgent Care & Medical Imaging (Formerly The Hamilton Medical Center Ltd)",
    "address": "10-12 Burnaby St, Hamilton HM 11, Bermuda",
    "latlng": [
      32.293,
      -64.786
    ],
    "contact": "(441) 400-8378",
    "website": "hmc.bm",
    "hours": "06:45 - 19:00"
  },
  {
    "type": "hospital",
    "name": "Bermuda Life Center",
    "address": "131 Front Street, 1st Floor City of Hamilton, Hamilton HM 12, Bermuda",
    "latlng": [
      32.293,
      -64.781
    ],
    "contact": "(441) 436-3010",
    "website": "bermuda-life-center.business.site",
    "hours": "07:30 - 17:00"
  },
  {
    "type": "hospital",
    "name": "Brown-Darrell Clinic",
    "address": "129 South Road Warwick WK, 10, Bermuda",
    "latlng": [
      32.317,
      -64.717
    ],
    "contact": "(441) 297-3333",
    "website": "Not Listed",
    "hours": "Not Listed"
  },
  {
    "type": "hospital",
    "name": "Department of Health Warwick Clinic",
    "address": "Bermuda",
    "latlng": [
      32.266,
      -64.808
    ],
    "contact": "Not Listed",
    "website": "Not Listed",
    "hours": "Not Listed"
  },
  {
    "type": "hospital",
    "name": "Hope Healthcare",
    "address": "14 Woodbourne Ave, Hamilton, Bermuda",
    "latlng": [
      32.293,
      -64.792
    ],
    "contact": "(441) 295-9105",
    "website": "hopehealthcare.bm",
    "hours": "08:00 - 17:00"
  },
  {
    "type": "hospital",
    "name": "Bermuda Cancer and Health Centre",
    "address": "46 Point Finger Rd, DV 04, Bermuda",
    "latlng": [
      32.289,
      -64.767
    ],
    "contact": "(441) 236-1001",
    "website": "chc.bm",
    "hours": "07:30 - 17:00"
  },
  {
    "type": "hospital",
    "name": "Department Of Health - Health Centre",
    "address": "Victoria cor. Union Streets Hamilton HM, Hamilton 19, Bermuda",
    "latlng": [
      32.295,
      -64.782
    ],
    "contact": "(441) 278-4900",
    "website": "Not Listed",
    "hours": "Not Listed"
  },
  {
    "type": "hospital",
    "name": "The Pulmonology Specialists Ltd.",
    "address": "Cumberland House, Wesley St, Hamilton 11, Bermuda",
    "latlng": [
      32.295,
      -64.788
    ],
    "contact": "Not Listed",
    "website": "Not Listed",
    "hours": "Not Listed"
  },
  {
    "type": "hospital",
    "name": "St. Eustatius Health Care Foundation",
    "address": "H.M. Queen Beatrix rd 25 St. Eustatius, Oranjestad, Caribbean Netherlands",
    "latlng": [
      17.482,
      -62.984
    ],
    "contact": "318 2211",
    "website": "sehcf.org",
    "hours": "00:00 - 00:00"
  },
  {
    "type": "hospital",
    "name": "giliandro's fashion Unisex",
    "address": "H.M. Queen Beatrix weg 25 Oranjestad, Oranjestad, Caribbean Netherlands",
    "latlng": [
      17.482,
      -62.984
    ],
    "contact": "318 6585",
    "website": "sehcf.org",
    "hours": "Not Listed"
  },
  {
    "type": "hospital",
    "name": "Mental Health Caribbean",
    "address": "Catherine Lespier Road 1, Oranjestad, Caribbean Netherlands",
    "latlng": [
      17.491,
      -62.984
    ],
    "contact": "318 0099",
    "website": "mentalhealthcaribbean.com",
    "hours": "08:30 - 16:30"
  },
  {
    "type": "hospital",
    "name": "A.M. Edwards Medical Center",
    "address": "JPGX+PG5, The Bottom, Caribbean Netherlands",
    "latlng": [
      17.626,
      -63.253
    ],
    "contact": "416 3288",
    "website": "sabahealthcare.org",
    "hours": "00:00 - 00:00"
  },
  {
    "type": "hospital",
    "name": "Peebles Hospital",
    "address": "Main St, Road Town, British Virgin Islands",
    "latlng": [
      18.417,
      -64.621
    ],
    "contact": "+1 284-494-3497",
    "website": "http://www.bvihsa.vg/peebles-hospital-services/",
    "hours": "00:00 - 00:00"
  },
  {
    "type": "hospital",
    "name": "Advanced Medical Center",
    "address": "Sir Francis Drake Highway Albion, Sea Cows Bay Tortola, VG1110, British Virgin Islands",
    "latlng": [
      18.412,
      -64.633
    ],
    "contact": "(284) 441-5061",
    "website": "amci.business.site",
    "hours": "Not Listed"
  },
  {
    "type": "hospital",
    "name": "Eureka Medical Clinic",
    "address": "Road Town, British Virgin Islands",
    "latlng": [
      18.424,
      -64.622
    ],
    "contact": "(284) 444-2346",
    "website": "eurekamedicalclinic.com",
    "hours": "08:00 - 18:00"
  },
  {
    "type": "hospital",
    "name": "The Bougainvillea Clinic Ltd.",
    "address": "No.15, Abbott Road Tortola Road Town, Road Town VG1110, British Virgin Islands",
    "latlng": [
      18.42,
      -64.621
    ],
    "contact": "(284) 444-2181",
    "website": "bougainvilleaclinic.com",
    "hours": "08:00 - 17:00"
  },
  {
    "type": "hospital",
    "name": "Nurse Iris O’Neal Clinic",
    "address": "CHW9+8M3, Unnamed Road, Spanish Town, British Virgin Islands",
    "latlng": [
      18.445,
      -64.433
    ],
    "contact": "(284) 852-7700",
    "website": "Not Listed",
    "hours": "Not Listed"
  },
  {
    "type": "hospital",
    "name": "Apex Medical Center",
    "address": "Millionaire Rd, Spanish Town, Virgin Gorda, British Virgin Islands",
    "latlng": [
      18.45,
      -64.436
    ],
    "contact": "(284) 345-2620",
    "website": "m.facebook.com/apexmedicalvg",
    "hours": "Not Listed"
  },
  {
    "type": "hospital",
    "name": "Penn Medical Center & Pharmacy",
    "address": "Building, 1st Flr, Ste 104 Rodus Building Waterfront Drive Road Town, Road Town, British Virgin Islands",
    "latlng": [
      18.411,
      -64.615
    ],
    "contact": "(284) 495-3288",
    "website": "pennmedci.com",
    "hours": "09:00 - 17:00"
  },
  {
    "type": "hospital",
    "name": "Jost Van Dyke Clinic",
    "address": "C6WX+98, Belle Vue, British Virgin Islands",
    "latlng": [
      18.446,
      -64.754
    ],
    "contact": "(284) 346-1709",
    "website": "Not Listed",
    "hours": "Not Listed"
  },
  {
    "type": "hospital",
    "name": "VI Medical Clinic",
    "address": "Sir Francis Drake Hwy, British Virgin Islands",
    "latlng": [
      18.407,
      -64.633
    ],
    "contact": "(284) 494-0971",
    "website": "Not Listed",
    "hours": "16:00 - 06:30"
  },
  {
    "type": "hospital",
    "name": "Health City Cayman Islands",
    "address": "9 Forum Ln, Cayman Islands",
    "latlng": [
      19.321,
      -81.38
    ],
    "contact": "(345) 640-4040",
    "website": "healthcitycaymanislands.com",
    "hours": "12:00 - 16:00"
  },
  {
    "type": "hospital",
    "name": "CTMH | Doctors Hospital",
    "address": "16 Middle Rd, George Town KY1-1104, Cayman Islands",
    "latlng": [
      19.29,
      -81.385
    ],
    "contact": "(345) 949-6066",
    "website": "doctorshospitalcayman.com",
    "hours": "00:00 - 00:00"
  },
  {
    "type": "hospital",
    "name": "Cayman Islands Hospital / Health Services Authority",
    "address": "95 Hospital Rd, George Town KY1-1103, Cayman Islands",
    "latlng": [
      19.289,
      -81.382
    ],
    "contact": "(345) 949-8600",
    "website": "hsa.ky",
    "hours": "00:00 - 00:00"
  },
  {
    "type": "hospital",
    "name": "Faith Hospital",
    "address": "P58F+66F, Dennis Foster Rd, Stake Bay, Cayman Islands",
    "latlng": [
      19.715,
      -79.829
    ],
    "contact": "(345) 948-2243",
    "website": "hsa.ky/faith-hospital",
    "hours": "00:00 - 00:00"
  },
  {
    "type": "hospital",
    "name": "Smith Road Medical Centre",
    "address": "Smith Rd, George Town, Cayman Islands",
    "latlng": [
      19.288,
      -81.379
    ],
    "contact": "Not Listed",
    "website": "Not Listed",
    "hours": "Not Listed"
  },
  {
    "type": "hospital",
    "name": "Jesse Ritch Memorial Health Center",
    "address": "7QM3+3RC, Bodden Town, Cayman Islands",
    "latlng": [
      19.282,
      -81.248
    ],
    "contact": "Not Listed",
    "website": "Not Listed",
    "hours": "Not Listed"
  },
  {
    "type": "hospital",
    "name": "North Side Health Centre",
    "address": "925 North Side Rd, North Side, Cayman Islands",
    "latlng": [
      19.349,
      -81.204
    ],
    "contact": "345-947-9525",
    "website": "Not Listed",
    "hours": "Not Listed"
  },
  {
    "type": "hospital",
    "name": "Medical Centre",
    "address": "Strand Shopping Centre, West Bay Rd, SMB Grand Cayman KY1, 1205, Cayman Islands",
    "latlng": [
      19.331,
      -81.382
    ],
    "contact": "(345) 945-7077",
    "website": "caymandoctor.ky",
    "hours": "08:30 - 17:00"
  },
  {
    "type": "hospital",
    "name": "East End Health Centre",
    "address": "2367 Sea View Rd, East End, Cayman Islands",
    "latlng": [
      19.295,
      -81.116
    ],
    "contact": "(345) 947-7440",
    "website": "Not Listed",
    "hours": "07:00 - 17:00"
  },
  {
    "type": "hospital",
    "name": "Health City Cayman Islands Camana Bay Clinic",
    "address": "9 Forum Ln, Cayman Islands",
    "latlng": [
      19.321,
      -81.38
    ],
    "contact": "(345) 640-4040",
    "website": "healthcitycaymanislands.com",
    "hours": "12:00 - 16:00"
  },
  {
    "type": "hospital",
    "name": "Total Health Clinic",
    "address": "Total Health The Grand Pavilion Commercial Centre, 802, West Bay Road Grand Cayman KY1, 1209, Cayman Islands",
    "latlng": [
      19.329,
      -81.383
    ],
    "contact": "(345) 333-2222",
    "website": "totalhealth.ky",
    "hours": "08:00 - 20:00"
  },
  {
    "type": "hospital",
    "name": "Royale Medical and Wellness Center",
    "address": "36 West Bay Road, BayTown Plaza, George Town Grand Cayman KY1, 1501, Cayman Islands",
    "latlng": [
      19.307,
      -81.386
    ],
    "contact": "(345) 769-6230",
    "website": "royalemedical.ky",
    "hours": "08:00 - 17:00"
  },
  {
    "type": "hospital",
    "name": "HSA Urgent Care Walk-In Clinic",
    "address": "95 Hospital Road George Town Grand Cayman, 95 Hospital Rd, George Town KY1-1103, Cayman Islands",
    "latlng": [
      19.289,
      -81.383
    ],
    "contact": "(345) 949-8600",
    "website": "hsa.ky/medical-services/urgent-care",
    "hours": "08:00 - 23:00"
  },
  {
    "type": "hospital",
    "name": "TrinCay Medical Service & Urgent Care",
    "address": "55 Market, 1204 Suite Jasmin Court Road Camana Bay Grand Cayman KY1, 1006, Cayman Islands",
    "latlng": [
      19.322,
      -81.381
    ],
    "contact": "(345) 943-4633",
    "website": "Not Listed",
    "hours": "08:00 - 18:00"
  },
  {
    "type": "hospital",
    "name": "Savannah Medical Clinic",
    "address": "Hirst Rd, Savannah, George Town, Cayman Islands",
    "latlng": [
      19.272,
      -81.3
    ],
    "contact": "345-749-6066",
    "website": "https://www.doctorshospitalcayman.com/",
    "hours": "09:00 - 19:00"
  },
  {
    "type": "hospital",
    "name": "Doctors Express Urgent Care",
    "address": "81 Godfrey Nixon Way George Town Grand Cayman KY KY1, 1107, 81 Godfrey Nixon Way, George Town, Cayman Islands",
    "latlng": [
      19.3,
      -81.376
    ],
    "contact": "(345) 745-6000",
    "website": "doctorsexpress.ky",
    "hours": "09:00 - 21:00"
  },
  {
    "type": "hospital",
    "name": "Oasis Medical Group",
    "address": "Centennial Towers, W Bay Rd, West Bay, Cayman Islands",
    "latlng": [
      19.369,
      -81.402
    ],
    "contact": "943-6066",
    "website": "omgcayman.com",
    "hours": "08:30 - 17:30"
  },
  {
    "type": "hospital",
    "name": "West Bay Nurses’ Health Centre",
    "address": "9HHW+JFM, Reverend Blackman Rd, West Bay, Cayman Islands",
    "latlng": [
      19.379,
      -81.406
    ],
    "contact": "(345) 949-3439",
    "website": "Not Listed",
    "hours": "08:30 - 16:00"
  },
  {
    "type": "hospital",
    "name": "Little Cayman Clinic",
    "address": "Spot Bay Rd, Cayman Islands",
    "latlng": [
      19.666,
      -80.086
    ],
    "contact": "Not Listed",
    "website": "Not Listed",
    "hours": "Not Listed"
  },
  {
    "type": "hospital",
    "name": "Cayman Clinic",
    "address": "439 Crewe Rd, George Town, Cayman Islands",
    "latlng": [
      19.289,
      -81.364
    ],
    "contact": "(345) 949-7400",
    "website": "caymanclinic.ky",
    "hours": "08:00 - 17:00"
  },
  {
    "type": "hospital",
    "name": "Hospital Hermanos Ameijeiras",
    "address": "Calle, # 701 San Lazaro, La Habana 10400, Cuba",
    "latlng": [
      23.139,
      -82.373
    ],
    "contact": "(07) 8761210",
    "website": "www.hospitalameijeiras.sld.cu",
    "hours": "00:00 - 00:00"
  },
  {
    "type": "hospital",
    "name": "La Pradera International Health Center",
    "address": "y 15, Calle 230, Matanzas, Cuba",
    "latlng": [
      23.056,
      -81.566
    ],
    "contact": "(07) 2725273",
    "website": "Not Listed",
    "hours": "Not Listed"
  },
  {
    "type": "hospital",
    "name": "Servimed",
    "address": "4HCP+CR4, Havana, Cuba",
    "latlng": [
      23.121,
      -82.415
    ],
    "contact": "Not Listed",
    "website": "Not Listed",
    "hours": "Not Listed"
  },
  {
    "type": "hospital",
    "name": "Carlos J. Finlay Military Hospital",
    "address": "3HJ9+J7R, Avenida 31, La Habana, Cuba",
    "latlng": [
      23.081,
      -82.434
    ],
    "contact": "(07) 2743000",
    "website": "Not Listed",
    "hours": "08:30 - 17:00"
  },
  {
    "type": "hospital",
    "name": "Clinica Internacional Cayo santa Maria",
    "address": "Cayo Santa María, Cuba",
    "latlng": [
      22.653,
      -79.054
    ],
    "contact": "(042) 350310",
    "website": "cayosantamaria.info/health.html",
    "hours": "00:00 - 00:00"
  },
  {
    "type": "hospital",
    "name": "Hospital Clínico Quirúrgico Calixto García",
    "address": "4JM8+X3V, Havana, Cuba",
    "latlng": [
      23.135,
      -82.387
    ],
    "contact": "(07) 8382138",
    "website": "ecured.cu/Hospital_Universitario_General_Calixto_Garc%C3%ADa",
    "hours": "00:00 - 00:00"
  },
  {
    "type": "hospital",
    "name": "Hospital William Soler",
    "address": "3J65+X75, Aldabo, La Habana, Cuba",
    "latlng": [
      23.062,
      -82.394
    ],
    "contact": "(07) 6443521",
    "website": "Not Listed",
    "hours": "00:00 - 00:00"
  },
  {
    "type": "hospital",
    "name": "Hospital Mario Munoz Monroy",
    "address": "P3GX+8MG, Colón, Cuba",
    "latlng": [
      22.725,
      -80.903
    ],
    "contact": "Not Listed",
    "website": "Not Listed",
    "hours": "00:00 - 00:00"
  },
  {
    "type": "hospital",
    "name": "CSMC",
    "address": "5VC8+9M9, 5ta. Avenida, La Habana, Cuba",
    "latlng": [
      23.171,
      -82.135
    ],
    "contact": "(07) 2090977",
    "website": "smcsalud.cu",
    "hours": "08:00 - 17:00"
  },
  {
    "type": "hospital",
    "name": "Hospital Materno Ramon Gonzalez Coro",
    "address": "21 La Habana Plaza de la Revolución, La Habana, Cuba",
    "latlng": [
      23.13,
      -82.4
    ],
    "contact": "(07) 8382613",
    "website": "Not Listed",
    "hours": "00:00 - 00:00"
  },
  {
    "type": "hospital",
    "name": "Hospital Clínico Quirúrgico",
    "address": "142 Principe, La Habana, Cuba",
    "latlng": [
      23.114,
      -82.371
    ],
    "contact": "(07) 8762059",
    "website": "Not Listed",
    "hours": "00:00 - 00:00"
  },
  {
    "type": "hospital",
    "name": "Hospital Universitario Vladímir Ilich Lenin",
    "address": "No 2, Ave. Lenin, Holguín 80100, Cuba",
    "latlng": [
      20.888,
      -76.271
    ],
    "contact": "(024) 462011",
    "website": "Not Listed",
    "hours": "00:00 - 00:00"
  },
  {
    "type": "hospital",
    "name": "Clinica Internacional Varadero",
    "address": "60, 5Q32+J6H, Varadero, Cuba",
    "latlng": [
      23.154,
      -81.252
    ],
    "contact": "(045) 667226",
    "website": "Not Listed",
    "hours": "00:00 - 00:00"
  },
  {
    "type": "hospital",
    "name": "Clínica Central Cira García",
    "address": "Calle 20 NO. 4101 esq. a Av. 41 Miramar, La Habana, Cuba",
    "latlng": [
      23.118,
      -82.416
    ],
    "contact": "(07) 2042811",
    "website": "cirag.cu",
    "hours": "00:00 - 00:00"
  },
  {
    "type": "hospital",
    "name": "Policlínico de Especialidades",
    "address": "4MFR+QQ2, Havana, Cuba",
    "latlng": [
      23.124,
      -82.31
    ],
    "contact": "Not Listed",
    "website": "Not Listed",
    "hours": "Not Listed"
  },
  {
    "type": "hospital",
    "name": "Hospital Naval",
    "address": "La Habana, Cuba",
    "latlng": [
      23.153,
      -82.335
    ],
    "contact": "Not Listed",
    "website": "Not Listed",
    "hours": "Not Listed"
  },
  {
    "type": "hospital",
    "name": "Pediatrico Centro Habana",
    "address": "Benjumeda y, 4JGF+62J, Morales, La Habana, Cuba",
    "latlng": [
      23.125,
      -82.38
    ],
    "contact": "(07) 8775552",
    "website": "ecured.cu/Hospital_Pedi%C3%A1trico_de_Centro_Habana",
    "hours": "00:00 - 00:00"
  },
  {
    "type": "hospital",
    "name": "Havana Psychiatric Hospital",
    "address": "2J62+VGF, Havana, Cuba",
    "latlng": [
      23.012,
      -82.401
    ],
    "contact": "(07) 6468331",
    "website": "Not Listed",
    "hours": "00:00 - 00:00"
  },
  {
    "type": "hospital",
    "name": "Centro de Investigaciones Médicas Quirúrgicas (CIMEQ)",
    "address": "3GJM+374, Havana, Cuba",
    "latlng": [
      23.08,
      -82.469
    ],
    "contact": "(07) 8581000",
    "website": "sld.cu/sitios/cimeq",
    "hours": "00:00 - 00:00"
  },
  {
    "type": "hospital",
    "name": "Hogar Materno",
    "address": "lamparilla y, 4MQ2+83W, Mercaderes, La Habana, Cuba",
    "latlng": [
      23.138,
      -82.352
    ],
    "contact": "Not Listed",
    "website": "Not Listed",
    "hours": "Not Listed"
  },
  {
    "type": "hospital",
    "name": "Princess Margaret Hospital",
    "address": "610 University Ave, Toronto, Ontario, Canada",
    "latlng": [
      43.658,
      -79.393
    ],
    "contact": "+1-416-946-2000",
    "website": "www.theprincessmargaret.ca",
    "hours": "00:00 - 00:00"
  },
  {
    "type": "hospital",
    "name": "Justin Fadipe Hospital",
    "address": "CHF9+WF4, Cuba Rd, Mero, Dominica",
    "latlng": [
      15.424,
      -61.433
    ],
    "contact": "(767) 449-6711",
    "website": "Not Listed",
    "hours": "Not Listed"
  },
  {
    "type": "hospital",
    "name": "Marigot Hospital",
    "address": "GPR8+8RW, Dr Nicholas Liverpool Hwy, Marigot, Dominica",
    "latlng": [
      15.541,
      -61.285
    ],
    "contact": "Not Listed",
    "website": "housingdominica.com/projects/marigot-hospital",
    "hours": "Not Listed"
  },
  {
    "type": "hospital",
    "name": "MDTH Medical Centre1",
    "address": "8J38+4J2, River St, Roseau, Dominica",
    "latlng": [
      15.302,
      -61.386
    ],
    "contact": "Not Listed",
    "website": "Not Listed",
    "hours": "Not Listed"
  },
  {
    "type": "hospital",
    "name": "Roseau Health Center",
    "address": "8J28+3FV, Roseau, Dominica",
    "latlng": [
      15.3,
      -61.386
    ],
    "contact": "(767) 266-3469",
    "website": "Not Listed",
    "hours": "Not Listed"
  },
  {
    "type": "hospital",
    "name": "GrandBay Health District",
    "address": "Unnamed Road, 6MVH+HRF, Berekua, Dominica",
    "latlng": [
      15.244,
      -61.323
    ],
    "contact": "Not Listed",
    "website": "Not Listed",
    "hours": "Not Listed"
  },
  {
    "type": "hospital",
    "name": "Mahaut River Health Centre",
    "address": "FPGX+G8X, Bataka, Dominica",
    "latlng": [
      15.476,
      -61.254
    ],
    "contact": "Not Listed",
    "website": "Not Listed",
    "hours": "Not Listed"
  },
  {
    "type": "hospital",
    "name": "Portsmouth Hospital",
    "address": "Pembroke St, Portsmouth, Dominica",
    "latlng": [
      15.579,
      -61.455
    ],
    "contact": "Not Listed",
    "website": "Not Listed",
    "hours": "00:00 - 00:00"
  },
  {
    "type": "hospital",
    "name": "Mahaut Health Centre",
    "address": "9J72+6QM, Mahaut, Dominica",
    "latlng": [
      15.363,
      -61.4
    ],
    "contact": "(767) 266-4051",
    "website": "Not Listed",
    "hours": "08:00 - 15:00"
  },
  {
    "type": "hospital",
    "name": "MDTH Medical Centre3",
    "address": "HG7W+CGJ, Ross Blvd, Portsmouth, Dominica",
    "latlng": [
      15.563,
      -61.456
    ],
    "contact": "Not Listed",
    "website": "Not Listed",
    "hours": "Not Listed"
  },
  {
    "type": "hospital",
    "name": "Belles Health Clinic",
    "address": "CMM9+VVP, Mero, Dominica",
    "latlng": [
      15.434,
      -61.332
    ],
    "contact": "Not Listed",
    "website": "Not Listed",
    "hours": "Not Listed"
  },
  {
    "type": "hospital",
    "name": "Anse-De-Mai Health Center",
    "address": "HJVC+727, Anse De Mai, Dominica",
    "latlng": [
      15.593,
      -61.382
    ],
    "contact": "Not Listed",
    "website": "Not Listed",
    "hours": "08:00 - 18:00"
  },
  {
    "type": "hospital",
    "name": "La Plaine Health Centre",
    "address": "8QJ4+JPR, La Plaine, Dominica",
    "latlng": [
      15.331,
      -61.245
    ],
    "contact": "Not Listed",
    "website": "Not Listed",
    "hours": "Not Listed"
  },
  {
    "type": "hospital",
    "name": "MDTH Medical Centre5",
    "address": "Worthington St, Dominica",
    "latlng": [
      15.367,
      -61.258
    ],
    "contact": "Not Listed",
    "website": "Not Listed",
    "hours": "Not Listed"
  },
  {
    "type": "hospital",
    "name": "MDTH Medical Centre2",
    "address": "CH4H+6WC, Edward Oliver Leblanc Hwy, St Joseph, Dominica",
    "latlng": [
      15.405,
      -61.422
    ],
    "contact": "Not Listed",
    "website": "Not Listed",
    "hours": "Not Listed"
  },
  {
    "type": "hospital",
    "name": "A-Medic Urgent care",
    "address": "23 Great Marlborough Street, Roseau, Dominica",
    "latlng": [
      15.299,
      -61.389
    ],
    "contact": "(767) 612-1328",
    "website": "Not Listed",
    "hours": "08:00 - 16:00"
  },
  {
    "type": "hospital",
    "name": "MDTH Medical Centre4",
    "address": "Wiers Rd, Dominica",
    "latlng": [
      15.544,
      -61.295
    ],
    "contact": "Not Listed",
    "website": "Not Listed",
    "hours": "Not Listed"
  },
  {
    "type": "hospital",
    "name": "Castle Bruce Health Centre",
    "address": "CPPR+48J, Castle Bruce, Dominica",
    "latlng": [
      15.435,
      -61.261
    ],
    "contact": "(767) 266-4113",
    "website": "Not Listed",
    "hours": "08:00 - 16:00"
  },
  {
    "type": "hospital",
    "name": "RUSM Health Clinic",
    "address": "RUSM Campus, Picard,, HG5R+32X, Portsmouth, Dominica",
    "latlng": [
      15.557,
      -61.462
    ],
    "contact": "Not Listed",
    "website": "Not Listed",
    "hours": "Not Listed"
  },
  {
    "type": "hospital",
    "name": "Newtown Healthcare Center",
    "address": "18 Victoria St, Roseau, Dominica",
    "latlng": [
      15.294,
      -61.385
    ],
    "contact": "Not Listed",
    "website": "Not Listed",
    "hours": "08:00 - 18:00"
  },
  {
    "type": "hospital",
    "name": "Hospital IMG en Punta Cana",
    "address": "Carretera Higüey - Miches esq, Punta Cana 23000, Dominican Republic",
    "latlng": [
      18.663,
      -68.432
    ],
    "contact": "(809) 285-6116",
    "website": "www.img.hospital",
    "hours": "00:00 - 00:00"
  },
  {
    "type": "hospital",
    "name": "International Medical Center TCMS",
    "address": "Plaza Brisas de Bavaro 502 Punta Cana, Bavaro 23000, Dominican Republic",
    "latlng": [
      18.688,
      -68.446
    ],
    "contact": "(809) 552-1117",
    "website": "internationalmedicalcenter.com",
    "hours": "00:00 - 00:00"
  },
  {
    "type": "hospital",
    "name": "International Medical Center TCMS",
    "address": "Plaza Brisas de Bavaro 502 Punta Cana, Bavaro 23000, Dominican Republic",
    "latlng": [
      18.688,
      -68.446
    ],
    "contact": "(809) 552-1117",
    "website": "internationalmedicalcenter.com",
    "hours": "00:00 - 00:00"
  },
  {
    "type": "hospital",
    "name": "Centro Médico Punta Cana",
    "address": "Avenida España, Bávaro, Dominican Republic",
    "latlng": [
      18.686,
      -68.451
    ],
    "contact": "8095521506",
    "website": "centromedicopuntacana.com",
    "hours": "00:00 - 00:00"
  },
  {
    "type": "hospital",
    "name": "Hospital de Alta Complejidad y Medicina Avanzada HACMA MEDICAL CENTER",
    "address": "31000, Dominican Republic",
    "latlng": [
      19.24,
      -70.323
    ],
    "contact": "Not Listed",
    "website": "Not Listed",
    "hours": "Not Listed"
  },
  {
    "type": "hospital",
    "name": "HS Medical Center",
    "address": "31000, Dominican Republic",
    "latlng": [
      19.24,
      -70.323
    ],
    "contact": "Not Listed",
    "website": "Not Listed",
    "hours": "Not Listed"
  },
  {
    "type": "hospital",
    "name": "Hospital Padre Billini",
    "address": "Calle Florence Terry Griswuld, Ensanche Naco, Dominican Republic",
    "latlng": [
      18.473,
      -69.929
    ],
    "contact": "8095621690",
    "website": "https://www.hsmedicalcenter.com",
    "hours": "07:30 - 22:00"
  },
  {
    "type": "hospital",
    "name": "Real Medical Center",
    "address": "Av. Rómulo Betancourt 515, Santo Domingo 10114, Dominican Republic",
    "latlng": [
      18.447,
      -69.967
    ],
    "contact": "(809) 537-3940",
    "website": "www.cmr.com.do",
    "hours": "00:00 - 00:00"
  },
  {
    "type": "hospital",
    "name": "Grupo Médico Mac Center",
    "address": "Santo Domingo, Dominican Republic",
    "latlng": [
      18.456,
      -69.959
    ],
    "contact": "(829) 378-1976",
    "website": "Not Listed",
    "hours": "00:00 - 00:00"
  },
  {
    "type": "hospital",
    "name": "International Medical Center TCMS",
    "address": "C9XQ+6HM, Av. Abraham Núñez, Boca Chica, Dominican Republic",
    "latlng": [
      18.448,
      -69.613
    ],
    "contact": "(829) 946-3991",
    "website": "internationalmedicalcenter.com",
    "hours": "09:00 - 17:00"
  },
  {
    "type": "hospital",
    "name": "Dayhospital",
    "address": "C9XQ+6HM, Av. Abraham Núñez, Boca Chica, Dominican Republic",
    "latlng": [
      18.448,
      -69.613
    ],
    "contact": "(829) 946-3991",
    "website": "internationalmedicalcenter.com",
    "hours": "09:00 - 17:00"
  },
  {
    "type": "hospital",
    "name": "Plaza de la Salud Dr. Juan M. Taveras R., Santo Domingo, D. N., Dominican Republic",
    "address": "F3QH+J2J, Santo Domingo, Dominican Republic",
    "latlng": [
      18.489,
      -69.925
    ],
    "contact": "(809) 565-7477",
    "website": "Not Listed",
    "hours": "00:00 - 00:00"
  },
  {
    "type": "hospital",
    "name": "General Health Plaza Hospital",
    "address": "F3QH+G68, Av Ortega y Gasset, Santo Domingo, Dominican Republic",
    "latlng": [
      18.488,
      -69.924
    ],
    "contact": "(809) 565-7477",
    "website": "hgps.org.do",
    "hours": "00:00 - 00:00"
  },
  {
    "type": "hospital",
    "name": "Luperón Medical Center",
    "address": "F4W2+69M, Santo Domingo 10401, Dominican Republic",
    "latlng": [
      18.495,
      -69.901
    ],
    "contact": "(809) 684-3989",
    "website": "www.centromedicoluperon.com.do",
    "hours": "00:00 - 00:00"
  },
  {
    "type": "hospital",
    "name": "BIOMEDICEN",
    "address": "Calle Los Tainos, Fca, 10100, Dominican Republic",
    "latlng": [
      18.453,
      -69.998
    ],
    "contact": "(849) 315-0466",
    "website": "instagram.com/biomedicencm?igshid=YmMyMTA2M2Y%3D",
    "hours": "08:00 - 17:00"
  },
  {
    "type": "hospital",
    "name": "HOSPITURS INTERNATIONAL CLINIC -MEDICAL SERVICES PUNTA CANA 24 H",
    "address": "PLAZA BOULEVARD CENTER 21, Punta Cana 23000, Dominican Republic",
    "latlng": [
      18.662,
      -68.432
    ],
    "contact": "(809) 468-4018",
    "website": "hospiturs.net",
    "hours": "00:00 - 00:00"
  },
  {
    "type": "hospital",
    "name": "Hispanic Medical Center",
    "address": "F5Q2+558, C. Marginal, Santo Domingo Este 11506, Dominican Republic",
    "latlng": [
      18.488,
      -69.852
    ],
    "contact": "(809) 596-0033",
    "website": "Not Listed",
    "hours": "00:00 - 00:00"
  },
  {
    "type": "hospital",
    "name": "Hospital Metropolitano de Santiago",
    "address": "RD-1 Autopista Juan Pablo Duarte, La Fardiquera, Dominican Republic",
    "latlng": [
      19.436,
      -70.663
    ],
    "contact": "18299472222",
    "website": "www.homs.com.do",
    "hours": "00:00 - 00:00"
  },
  {
    "type": "hospital",
    "name": "United Hearts Clinic",
    "address": "C. Padre Fantino Falco 21, Santo Domingo, Dominican Republic",
    "latlng": [
      18.477,
      -69.925
    ],
    "contact": "(809) 567-4421",
    "website": "Not Listed",
    "hours": "00:00 - 00:00"
  },
  {
    "type": "hospital",
    "name": "Medical Center",
    "address": "Calle Florence Terry Griswuld, Ensanche Naco, Dominican Republic",
    "latlng": [
      18.473,
      -69.929
    ],
    "contact": "8095621690",
    "website": "https://www.hsmedicalcenter.com",
    "hours": "07:30 - 22:00"
  },
  {
    "type": "hospital",
    "name": "St. George's General Hospital",
    "address": "26XW+739, St George's, Grenada",
    "latlng": [
      12.048,
      -61.757
    ],
    "contact": "(473) 440-2051",
    "website": "Not Listed",
    "hours": "00:00 - 00:00"
  },
  {
    "type": "hospital",
    "name": "St. Augustine's Medical Services",
    "address": "St Paul's, St. George, Grenada",
    "latlng": [
      12.046,
      -61.734
    ],
    "contact": "(473) 440-6173",
    "website": "samsgrenada.com",
    "hours": "00:00 - 00:00"
  },
  {
    "type": "hospital",
    "name": "Good Hope Medical Center",
    "address": "Good Hope Estate, Mardigras, Grenada",
    "latlng": [
      12.048,
      -61.721
    ],
    "contact": "Not Listed",
    "website": "Not Listed",
    "hours": "08:00 - 04:00"
  },
  {
    "type": "hospital",
    "name": "Happy Hill Medical Center",
    "address": "36RV+5G7, Happy Hill, Grenada",
    "latlng": [
      12.09,
      -61.758
    ],
    "contact": "Not Listed",
    "website": "Not Listed",
    "hours": "08:00 - 04:00"
  },
  {
    "type": "hospital",
    "name": "Princess Alice Hospital",
    "address": "48MW+2XG, Clabony, Grenada",
    "latlng": [
      12.132,
      -61.655
    ],
    "contact": "(473) 442-7251",
    "website": "Not Listed",
    "hours": "00:00 - 00:00"
  },
  {
    "type": "hospital",
    "name": "Bellvue Health Center",
    "address": "383M+26H, Thebaide, Grenada",
    "latlng": [
      12.052,
      -61.669
    ],
    "contact": "Not Listed",
    "website": "Not Listed",
    "hours": "Not Listed"
  },
  {
    "type": "hospital",
    "name": "Grand Bras Medical Centre",
    "address": "Grand Bras, Grenada",
    "latlng": [
      12.122,
      -61.639
    ],
    "contact": "(473) 442-7623",
    "website": "Not Listed",
    "hours": "Not Listed"
  },
  {
    "type": "hospital",
    "name": "Tivoli Medical Station",
    "address": "59FM+379, Tivoli, Grenada",
    "latlng": [
      12.172,
      -61.619
    ],
    "contact": "(473) 442-8185",
    "website": "Not Listed",
    "hours": "Not Listed"
  },
  {
    "type": "hospital",
    "name": "Hermitage",
    "address": "Mt Rose, Grenada",
    "latlng": [
      12.176,
      -61.637
    ],
    "contact": "Not Listed",
    "website": "Not Listed",
    "hours": "Not Listed"
  },
  {
    "type": "hospital",
    "name": "Black Rock Medical Centre",
    "address": "Grand Anse Shopping Centre, Grenada",
    "latlng": [
      12.024,
      -61.758
    ],
    "contact": "(473) 444-4855",
    "website": "Not Listed",
    "hours": "09:00 - 15:00"
  },
  {
    "type": "hospital",
    "name": "Grand Roy Medical Center",
    "address": "Palmiste Lane, Grenada",
    "latlng": [
      12.13,
      -61.75
    ],
    "contact": "Not Listed",
    "website": "Not Listed",
    "hours": "08:00 - 04:00"
  },
  {
    "type": "hospital",
    "name": "Grand Anse Medical Centre",
    "address": "268R+R9X, lime, The Lime, Grenada",
    "latlng": [
      12.017,
      -61.761
    ],
    "contact": "(473) 439-8620",
    "website": "Not Listed",
    "hours": "08:30 - 15:30"
  },
  {
    "type": "hospital",
    "name": "Snug Corner Medical Station",
    "address": "Bealieu, Grenada",
    "latlng": [
      12.075,
      -61.733
    ],
    "contact": "Not Listed",
    "website": "Not Listed",
    "hours": "Not Listed"
  },
  {
    "type": "hospital",
    "name": "Sauteurs Health Centre",
    "address": "La Fortune St.Patrick's, 69F7+664, Sauteurs, Grenada",
    "latlng": [
      12.223,
      -61.639
    ],
    "contact": "(473) 442-9317",
    "website": "Not Listed",
    "hours": "Not Listed"
  },
  {
    "type": "hospital",
    "name": "Union Medical Station",
    "address": "683J+V2F, Union, Grenada",
    "latlng": [
      12.204,
      -61.672
    ],
    "contact": "(473) 442-9327",
    "website": "Not Listed",
    "hours": "Not Listed"
  },
  {
    "type": "hospital",
    "name": "Laborie Medical Centre",
    "address": "LA BORIE, Grenada",
    "latlng": [
      12.045,
      -61.728
    ],
    "contact": "(473) 440-3228",
    "website": "Not Listed",
    "hours": "08:00 - 04:00"
  },
  {
    "type": "hospital",
    "name": "Carriacou Health Services",
    "address": "Main Street, Hillsborough, FGJQ+4C2, Carriacou, Grenada",
    "latlng": [
      12.48,
      -61.464
    ],
    "contact": "(473) 443-8247",
    "website": "carriacouhealth.com",
    "hours": "08:30 - 16:30"
  },
  {
    "type": "hospital",
    "name": "Princess Royal Hospital",
    "address": "FHQ3+HQH, Γκραντ Μπέυ, Grenada",
    "latlng": [
      12.489,
      -61.448
    ],
    "contact": "(473) 443-7400",
    "website": "Not Listed",
    "hours": "Not Listed"
  },
  {
    "type": "hospital",
    "name": "Health Center",
    "address": "Francia, Grenada",
    "latlng": [
      12.466,
      -61.486
    ],
    "contact": "Not Listed",
    "website": "Not Listed",
    "hours": "Not Listed"
  },
  {
    "type": "hospital",
    "name": "Victoria Visiting Station (Health Centre)",
    "address": "57WW+J62, Victoria, Grenada",
    "latlng": [
      12.196,
      -61.707
    ],
    "contact": "(473) 444-8427",
    "website": "Not Listed",
    "hours": "Not Listed"
  },
  {
    "type": "hospital",
    "name": "Hospital Center Regional University",
    "address": "1345 Hospital Blvd, Shieldhall, Glasgow, United Kingdom",
    "latlng": [
      55.862,
      -4.342
    ],
    "contact": "0141 201 1100",
    "website": "www.nhsggc.org.uk/patients-and-visitors/main-hospital-sites/queen-elizabeth-university-hospital-campus/queen-elizabeth-university-hospital-glasgow/",
    "hours": "00:00 - 00:00"
  },
  {
    "type": "hospital",
    "name": "Hospital",
    "address": "Glasgow G51, UK",
    "latlng": [
      55.864,
      -4.343
    ],
    "contact": "Not Listed",
    "website": "Not Listed",
    "hours": "Not Listed"
  },
  {
    "type": "hospital",
    "name": "Clinical Centre Medico-Social Pitat",
    "address": "Glasgow G51, UK",
    "latlng": [
      55.864,
      -4.343
    ],
    "contact": "Not Listed",
    "website": "Not Listed",
    "hours": "Not Listed"
  },
  {
    "type": "hospital",
    "name": "Hospital Center Sainte Marie",
    "address": "Rue du Docteur Joseph Pitat, Basse-Terre, Guadeloupe",
    "latlng": [
      15.998,
      -61.734
    ],
    "contact": "0590 80 61 00",
    "website": "clinique-cms.com",
    "hours": "Not Listed"
  },
  {
    "type": "hospital",
    "name": "Centre Hospitalier de Basse Terre",
    "address": "Avenue Gaston Feuillard, Basse-Terre, Guadeloupe",
    "latlng": [
      16.002,
      -61.731
    ],
    "contact": "0590 80 54 54",
    "website": "ch-labasseterre.fr",
    "hours": "Not Listed"
  },
  {
    "type": "hospital",
    "name": "Hospital Center Gerontological Du Raizet",
    "address": "7F4G+GW9, Rle des Aînés, Pointe-à-Pitre 97142, Guadeloupe",
    "latlng": [
      16.256,
      -61.525
    ],
    "contact": "0590 21 37 70",
    "website": "Not Listed",
    "hours": "Not Listed"
  },
  {
    "type": "hospital",
    "name": "Hospital Center De Montéran",
    "address": "1er Plateau, Saint-Claude 97120, Guadeloupe",
    "latlng": [
      16.022,
      -61.708
    ],
    "contact": "0590 80 52 52",
    "website": "Not Listed",
    "hours": "Not Listed"
  },
  {
    "type": "hospital",
    "name": "Health Facility",
    "address": "68HJ+3FV, Lamentin 97129, Guadeloupe",
    "latlng": [
      16.227,
      -61.671
    ],
    "contact": "Not Listed",
    "website": "Not Listed",
    "hours": "Not Listed"
  },
  {
    "type": "hospital",
    "name": "Hospital Louis Daniel Beauperthuy",
    "address": "202 route de Mahault 97116 Pointe, Noire, Pointe-Noire 97116, Guadeloupe",
    "latlng": [
      16.198,
      -61.786
    ],
    "contact": "0590 80 59 59",
    "website": "chldb.fr",
    "hours": "Not Listed"
  },
  {
    "type": "hospital",
    "name": "Had De La Basse-Terre",
    "address": "ZAC de Beausoleil, Baie-Mahault 97122, Guadeloupe",
    "latlng": [
      16.255,
      -61.602
    ],
    "contact": "0590 26 70 94",
    "website": "Not Listed",
    "hours": "00:00 - 00:00"
  },
  {
    "type": "hospital",
    "name": "Epsmg Psychiatric Hospital",
    "address": "97100, Saint-Claude 97120, Guadeloupe",
    "latlng": [
      16.024,
      -61.705
    ],
    "contact": "Not Listed",
    "website": "Not Listed",
    "hours": "Not Listed"
  },
  {
    "type": "hospital",
    "name": "Polyclinique De La Guadeloupe",
    "address": "Morne Jolivière, Rue de l'Institut Pasteur, Les Abymes 97139, Guadeloupe",
    "latlng": [
      16.233,
      -61.53
    ],
    "contact": "0590 82 19 63",
    "website": "facebook.com/Polyclinique.gp",
    "hours": "00:00 - 00:00"
  },
  {
    "type": "hospital",
    "name": "Hospital Maurice Selbonne",
    "address": "97125 Rue des Manguiers, Bouillante 97125, Guadeloupe",
    "latlng": [
      16.141,
      -61.762
    ],
    "contact": "0590 80 49 00",
    "website": "ch-mauriceselbonne.fr",
    "hours": "Not Listed"
  },
  {
    "type": "hospital",
    "name": "Hospital Center De Marie Galante",
    "address": "VMQV+VF9, N 9, Grand-Bourg 97112, Guadeloupe",
    "latlng": [
      15.889,
      -61.308
    ],
    "contact": "0590 97 65 00",
    "website": "Not Listed",
    "hours": "Not Listed"
  },
  {
    "type": "hospital",
    "name": "Clinique Les Nouvelles Eaux Marine",
    "address": "8P98+33H, Le Moule 97160, Guadeloupe",
    "latlng": [
      16.317,
      -61.287
    ],
    "contact": "0590 23 26 96",
    "website": "Not Listed",
    "hours": "09:00 - 17:00"
  },
  {
    "type": "hospital",
    "name": "Clinical La Violette",
    "address": "Morne Aimant, Trois-Rivières 97114, Guadeloupe",
    "latlng": [
      15.978,
      -61.662
    ],
    "contact": "05 90 92 94 00",
    "website": "Not Listed",
    "hours": "Not Listed"
  },
  {
    "type": "hospital",
    "name": "Hospital Center Of Montéran Antenna Nord Basse Land",
    "address": "Rue Campenon, 88H2+7GG, Le Boyer, Sainte-Rose 97115, Guadeloupe",
    "latlng": [
      16.328,
      -61.701
    ],
    "contact": "Not Listed",
    "website": "Not Listed",
    "hours": "Not Listed"
  },
  {
    "type": "hospital",
    "name": "Pôle Santé Nev Guadeloupe Clinical Nouvelles Eaux Vives",
    "address": "Matouba Papaye, Rue Mont au Ciel, Saint-Claude 97120, Guadeloupe",
    "latlng": [
      16.045,
      -61.689
    ],
    "contact": "0590 80 53 53",
    "website": "clinique-nev.com",
    "hours": "00:00 - 00:00"
  },
  {
    "type": "hospital",
    "name": "Centre Médico-Sociale",
    "address": "Rue du Dr Pitat, Basse-Terre 97100, Guadeloupe",
    "latlng": [
      15.998,
      -61.734
    ],
    "contact": "0590 80 61 00",
    "website": "clinique-cms.com",
    "hours": "Not Listed"
  },
  {
    "type": "hospital",
    "name": "Centre Médical de Garde De Le Moule",
    "address": "8JJV+GPR, Le Moule 97160, Guadeloupe",
    "latlng": [
      16.331,
      -61.358
    ],
    "contact": "0590 90 13 13",
    "website": "Not Listed",
    "hours": "Not Listed"
  },
  {
    "type": "hospital",
    "name": "Donacien Medical Center",
    "address": "Port-au-Prince, Haiti",
    "latlng": [
      18.591,
      -72.306
    ],
    "contact": "37 05 6410",
    "website": "Not Listed",
    "hours": "00:00 - 00:00"
  },
  {
    "type": "hospital",
    "name": "State University of Haiti Hospital",
    "address": "Port-au-Prince, Ave.Mgr Guilloux et St-Honoré, GMQ5+QW4, Port-au-Prince, Haiti",
    "latlng": [
      18.539,
      -72.342
    ],
    "contact": "Not Listed",
    "website": "Not Listed",
    "hours": "00:00 - 00:00"
  },
  {
    "type": "hospital",
    "name": "New Hope Hospital",
    "address": "MPJ9+7H2, Plaine-du-Nord, Haiti",
    "latlng": [
      19.68,
      -72.283
    ],
    "contact": "Not Listed",
    "website": "Not Listed",
    "hours": "Not Listed"
  },
  {
    "type": "hospital",
    "name": "Hospital Albert Schweitzer",
    "address": "Desjardines, Haiti",
    "latlng": [
      19.074,
      -72.493
    ],
    "contact": "(412) 361-5200",
    "website": "hashaiti.org",
    "hours": "00:00 - 00:00"
  },
  {
    "type": "hospital",
    "name": "Partners in Health Hospital",
    "address": "RVPM+G76, Rte Départmentale 11, Arrondissement de Mirebalais, Haiti",
    "latlng": [
      18.836,
      -72.119
    ],
    "contact": "28 10 6828",
    "website": "pih.org/pages/mirebalais",
    "hours": "09:00 - 20:00"
  },
  {
    "type": "hospital",
    "name": "Medical Center De Frère",
    "address": "1 Medical Center Dr, Morgantown, WV 26506, USA",
    "latlng": [
      39.654,
      -79.961
    ],
    "contact": "(304) 293-6208",
    "website": "wvudentalcare.com",
    "hours": "08:15 - 11:3013:00 - 15:45"
  },
  {
    "type": "hospital",
    "name": "Medical Center Du Tabernacle",
    "address": "1 Medical Center Dr, Morgantown, WV 26506, USA",
    "latlng": [
      39.654,
      -79.961
    ],
    "contact": "(304) 293-6208",
    "website": "wvudentalcare.com",
    "hours": "08:15 - 11:3013:00 - 15:45"
  },
  {
    "type": "hospital",
    "name": "Health Center Elizabeth",
    "address": "1200 J D Anderson Dr, Morgantown, West Virginia, United States",
    "latlng": [
      39.663,
      -79.948
    ],
    "contact": "(304) 598-1200",
    "website": "www.mongeneral.com",
    "hours": "00:00 - 00:00"
  },
  {
    "type": "hospital",
    "name": "Valentine Medical Center",
    "address": "1 Medical Center Dr, Morgantown, WV 26506, USA",
    "latlng": [
      39.654,
      -79.96
    ],
    "contact": "(304) 285-7101",
    "website": "directory.hsc.wvu.edu/Profile/65961",
    "hours": "Not Listed"
  },
  {
    "type": "hospital",
    "name": "Community Hospital of Haiti",
    "address": "Petion ville route de freres Port-au-Prince HT, Port-au-Prince 8110, Haiti",
    "latlng": [
      18.527,
      -72.274
    ],
    "contact": "43 08 7555",
    "website": "Not Listed",
    "hours": "00:00 - 00:00"
  },
  {
    "type": "hospital",
    "name": "Saint Joseph Hospital",
    "address": "Rue Duncombe, Port-au-Prince, Haiti",
    "latlng": [
      18.535,
      -72.33
    ],
    "contact": "Not Listed",
    "website": "hopitalstjoseph.org",
    "hours": "00:00 - 00:00"
  },
  {
    "type": "hospital",
    "name": "Hospital Sacre Coeur",
    "address": "JQ5R+Q7X, Milot, Haiti",
    "latlng": [
      19.609,
      -72.211
    ],
    "contact": "31 55 0463",
    "website": "crudem.org",
    "hours": "00:00 - 00:00"
  },
  {
    "type": "hospital",
    "name": "Medical Center Du Champs-De-Mars",
    "address": "HMVV+Q24, Port-au-Prince, Haiti",
    "latlng": [
      18.594,
      -72.31
    ],
    "contact": "Not Listed",
    "website": "Not Listed",
    "hours": "08:00 - 18:00"
  },
  {
    "type": "hospital",
    "name": "Quest Medical Center",
    "address": "15 Delmas 31, Port-au-Prince, Haiti",
    "latlng": [
      18.554,
      -72.307
    ],
    "contact": "Not Listed",
    "website": "Not Listed",
    "hours": "Not Listed"
  },
  {
    "type": "hospital",
    "name": "Health Center Samarie",
    "address": "QQ2V+66R, RN #3, Cap-Haïtien, Haiti",
    "latlng": [
      19.75,
      -72.209
    ],
    "contact": "Not Listed",
    "website": "Not Listed",
    "hours": "Not Listed"
  },
  {
    "type": "hospital",
    "name": "Centre Hospitalier Sainte Marie",
    "address": "45, Av. John Brown, Port-au-Prince, Haiti",
    "latlng": [
      18.544,
      -72.337
    ],
    "contact": "28 12 0515",
    "website": "Not Listed",
    "hours": "00:00 - 00:00"
  },
  {
    "type": "hospital",
    "name": "La Vierge Miracle Medical Center",
    "address": "HPGQ+VGF, Port-au-Prince, Haiti",
    "latlng": [
      18.577,
      -72.263
    ],
    "contact": "Not Listed",
    "website": "Not Listed",
    "hours": "Not Listed"
  },
  {
    "type": "hospital",
    "name": "Centre Medical Adonaï",
    "address": "RN #1, Port-au-Prince, Haiti",
    "latlng": [
      18.618,
      -72.276
    ],
    "contact": "31 16 4894",
    "website": "Not Listed",
    "hours": "00:00 - 00:00"
  },
  {
    "type": "hospital",
    "name": "Saint Boniface Hospital",
    "address": "Fond-des-Blancs, Haiti",
    "latlng": [
      18.277,
      -73.132
    ],
    "contact": "Not Listed",
    "website": "haitihealth.org",
    "hours": "07:30 - 16:00"
  },
  {
    "type": "hospital",
    "name": "Hôpital Saint François de Sale",
    "address": "Rue Chareron, Port-au-Prince, Haiti",
    "latlng": [
      18.538,
      -72.346
    ],
    "contact": "41 83 3047",
    "website": "Not Listed",
    "hours": "Not Listed"
  },
  {
    "type": "hospital",
    "name": "St. Joseph's Hospital & Medical Centre",
    "address": "Deanery Rd, Franklyn Town, Jamaica",
    "latlng": [
      17.98,
      -76.774
    ],
    "contact": "(876) 928-4956",
    "website": "Not Listed",
    "hours": "08:00 - 16:00"
  },
  {
    "type": "hospital",
    "name": "Nuttall Memorial Hospital",
    "address": "6 Caledonia Avenue, Kingston 5, Jamaica",
    "latlng": [
      17.995,
      -76.788
    ],
    "contact": "(876) 926-2139",
    "website": "nuttallhospital.org",
    "hours": "08:00 - 20:00"
  },
  {
    "type": "hospital",
    "name": "Harbour View Health Centre Jamaica",
    "address": "X72J+W67, Fort Nugent Dr, Harbour View, Jamaica",
    "latlng": [
      17.952,
      -76.722
    ],
    "contact": "(876) 938-6513",
    "website": "Not Listed",
    "hours": "08:00 - 16:00"
  },
  {
    "type": "hospital",
    "name": "Andrews Memorial Seventh-Day Adventist Hospital",
    "address": "27 Hope Rd, Kingston, Jamaica",
    "latlng": [
      18.014,
      -76.791
    ],
    "contact": "(876) 926-7401",
    "website": "amhosp.org",
    "hours": "00:00 - 00:00"
  },
  {
    "type": "hospital",
    "name": "Emercare Medical Centre",
    "address": "111 Constant Spring Rd, Kingston 00010, Jamaica",
    "latlng": [
      18.029,
      -76.798
    ],
    "contact": "(876) 924-4531",
    "website": "Not Listed",
    "hours": "08:00 - 20:00"
  },
  {
    "type": "hospital",
    "name": "Bayside Medical Center",
    "address": "Suite 6, Bisco Mall, 6-8 Union Street, Montego Bay, Jamaica",
    "latlng": [
      18.474,
      -77.925
    ],
    "contact": "(876) 971-5650",
    "website": "findyello.com/jamaica-island/bayside-medical-center/profile",
    "hours": "08:00 - 20:00"
  },
  {
    "type": "hospital",
    "name": "Omega Medical Hospital",
    "address": "Norman Manley Blvd, Negril, Jamaica",
    "latlng": [
      18.285,
      -78.343
    ],
    "contact": "(876) 957-9223",
    "website": "omegamedicalservicesltd.com",
    "hours": "00:00 - 00:00"
  },
  {
    "type": "hospital",
    "name": "Noel Holmes Hospital",
    "address": "Lucea, Jamaica",
    "latlng": [
      18.452,
      -78.17
    ],
    "contact": "Not Listed",
    "website": "luceatown.info/noel-holmes-hospital",
    "hours": "Not Listed"
  },
  {
    "type": "hospital",
    "name": "Omega Medical Centre",
    "address": "Norman Manley Blvd, Negril, Jamaica",
    "latlng": [
      18.296,
      -78.339
    ],
    "contact": "(876) 957-9223",
    "website": "omegamedicalservicesltd.com",
    "hours": "08:00 - 16:00"
  },
  {
    "type": "hospital",
    "name": "Royale Medical Centre",
    "address": "10 Lewis St, Savanna la Mar, Jamaica",
    "latlng": [
      18.222,
      -78.134
    ],
    "contact": "(876) 955-3154",
    "website": "royalemedicalcentre.business.site",
    "hours": "08:00 - 16:00"
  },
  {
    "type": "hospital",
    "name": "Washington Medical Centre",
    "address": "53 Renfield Road, Kingston, Jamaica",
    "latlng": [
      18.026,
      -76.822
    ],
    "contact": "(876) 622-0637",
    "website": "Not Listed",
    "hours": "Not Listed"
  },
  {
    "type": "hospital",
    "name": "Hargreaves Memorial Hospital",
    "address": "53 Renfield Road, Kingston, Jamaica",
    "latlng": [
      18.026,
      -76.822
    ],
    "contact": "(876) 622-0637",
    "website": "Not Listed",
    "hours": "Not Listed"
  },
  {
    "type": "hospital",
    "name": "Krishna medical center",
    "address": "32 Hargreaves Avenue, Mandeville, Jamaica",
    "latlng": [
      18.044,
      -77.51
    ],
    "contact": "(876) 961-1589",
    "website": "findyello.com/jamaica-island/hargreaves-memorial-hospital-2006-ltd/profile",
    "hours": "00:00 - 00:00"
  },
  {
    "type": "hospital",
    "name": "Newport Medical Center",
    "address": "Kingston, Jamaica",
    "latlng": [
      17.984,
      -76.827
    ],
    "contact": "(876) 926-1444",
    "website": "Not Listed",
    "hours": "08:00 - 18:00"
  },
  {
    "type": "hospital",
    "name": "Black River Hospital",
    "address": "Kingston, Jamaica",
    "latlng": [
      17.984,
      -76.827
    ],
    "contact": "(876) 926-1444",
    "website": "Not Listed",
    "hours": "08:00 - 18:00"
  },
  {
    "type": "hospital",
    "name": "Cornwall Regional Hospital",
    "address": "45 High St, Black River, Jamaica",
    "latlng": [
      18.026,
      -77.861
    ],
    "contact": "(876) 965-2027",
    "website": "Not Listed",
    "hours": "00:00 - 00:00"
  },
  {
    "type": "hospital",
    "name": "St. Ann's Bay Hospital",
    "address": "St. Ann's Bay, Jamaica",
    "latlng": [
      18.435,
      -77.213
    ],
    "contact": "Not Listed",
    "website": "Not Listed",
    "hours": "Not Listed"
  },
  {
    "type": "hospital",
    "name": "Pure Jamaica Medical Centre",
    "address": "1, Suite 7, The Stantons, 6 Stanton Terrace, Kingston, Jamaica",
    "latlng": [
      18.007,
      -76.774
    ],
    "contact": "Not Listed",
    "website": "purejamaica.net",
    "hours": "08:00 - 18:00"
  },
  {
    "type": "hospital",
    "name": "Isaac Barrant Hospital",
    "address": "WP8M+XX4, Duckenfield, Jamaica",
    "latlng": [
      17.917,
      -76.267
    ],
    "contact": "(876) 982-2766",
    "website": "Not Listed",
    "hours": "Not Listed"
  },
  {
    "type": "hospital",
    "name": "Elohim Medical Center",
    "address": "F3CG+JWQ, Creek St, Montego Bay, Jamaica",
    "latlng": [
      18.471,
      -77.925
    ],
    "contact": "(876) 971-8201",
    "website": "Not Listed",
    "hours": "08:00 - 16:00"
  },
  {
    "type": "hospital",
    "name": "Hospital Center Of Fort De France",
    "address": "Rue du Capitaine Pierre Rose, Fort-de-France 97200, Martinique",
    "latlng": [
      14.607,
      -61.068
    ],
    "contact": "Not Listed",
    "website": "Not Listed",
    "hours": "Not Listed"
  },
  {
    "type": "hospital",
    "name": "Ernest WAN AJOUHU Hospital Center",
    "address": "97240 Lotissement Pointe Courchet, Le François 97240, Martinique",
    "latlng": [
      14.625,
      -60.906
    ],
    "contact": "0596 30 10 99",
    "website": "Not Listed",
    "hours": "11:00 - 20:00"
  },
  {
    "type": "hospital",
    "name": "Hospital Center Nord Caribbean",
    "address": "quartier 97221, Lajus, Le Carbet 97221, Martinique",
    "latlng": [
      14.703,
      -61.182
    ],
    "contact": "0596 78 02 20",
    "website": "centre-hospitalier-nordcaraibe.fr",
    "hours": "Not Listed"
  },
  {
    "type": "hospital",
    "name": "Center Hospital Du Marin",
    "address": "quartier 97221, Lajus, Le Carbet 97221, Martinique",
    "latlng": [
      14.703,
      -61.182
    ],
    "contact": "0596 78 02 20",
    "website": "centre-hospitalier-nordcaraibe.fr",
    "hours": "Not Listed"
  },
  {
    "type": "hospital",
    "name": "Hospital Center De Colson",
    "address": "Rue Victor Lamon, Le Marin, Martinique",
    "latlng": [
      14.471,
      -60.872
    ],
    "contact": "0596 74 92 05",
    "website": "Not Listed",
    "hours": "10:00 - 19:00"
  },
  {
    "type": "hospital",
    "name": "Hospital Pierre Zobda-Quitman",
    "address": "Rue Victor Lamon, Le Marin, Martinique",
    "latlng": [
      14.471,
      -60.872
    ],
    "contact": "0596 74 92 05",
    "website": "Not Listed",
    "hours": "10:00 - 19:00"
  },
  {
    "type": "hospital",
    "name": "Hospital Center Des Trois Îlets",
    "address": "Fort-de-France, Martinique",
    "latlng": [
      14.633,
      -61.04
    ],
    "contact": "0596 55 20 00",
    "website": "http://www.chu-martinique.fr/",
    "hours": "10:00 - 20:00"
  },
  {
    "type": "hospital",
    "name": "FirstPoint HealthCare",
    "address": "Silver Street Head, Sheffield City Centre, Sheffield S1 2DD, UK",
    "latlng": [
      53.384,
      -1.474
    ],
    "contact": "0114 309 4344",
    "website": "firstpointhealthcare.com",
    "hours": "08:30 - 17:30"
  }
]